[
  {
    "units": [
      {
        "id": 11,
        "qty": 0
      },
      {
        "id": 12,
        "qty": 0
      }
    ],
    "id": 6259,
    "name": "",
    "client_number": "200",
    "PhoneNr": null,
    "webSite": null,
    "Address": "50 Hoopers Rd, Kunda Park QLD 4556, Australia",
    "lat": -26.658808,
    "lng": 153.038477,
    "zone": null,
    "defaultDeliveryDetails": null,
    "not_emails": null,
    "not_sms": null
  },
  {
    "units": [
      {
        "id": 11,
        "qty": 0
      },
      {
        "id": 12,
        "qty": 0
      }
    ],
    "id": 6260,
    "name": "",
    "client_number": "201",
    "PhoneNr": null,
    "webSite": null,
    "Address": "584 Maroochydore Rd, Kunda Park QLD 4556, Australia",
    "lat": -26.662250,
    "lng": 153.036370,
    "zone": null,
    "defaultDeliveryDetails": null,
    "not_emails": null,
    "not_sms": null
  },
  {
    "units": [
      {
        "id": 11,
        "qty": 0
      },
      {
        "id": 12,
        "qty": 0
      }
    ],
    "id": 6261,
    "name": "",
    "client_number": "202",
    "PhoneNr": null,
    "webSite": null,
    "Address": "584 Maroochydore Rd, Kunda Park QLD 4556, Australia",
    "lat": -27.058115,
    "lng": 152.959762,
    "zone": null,
    "defaultDeliveryDetails": null,
    "not_emails": null,
    "not_sms": null
  },
  {
    "units": [
      {
        "id": 11,
        "qty": 0
      },
      {
        "id": 12,
        "qty": 0
      }
    ],
    "id": 6262,
    "name": "",
    "client_number": "203",
    "PhoneNr": null,
    "webSite": null,
    "Address": "237 Pumicestone Rd, Caboolture QLD 4510, Australia",
    "lat": -27.063542,
    "lng": 153.157820,
    "zone": null,
    "defaultDeliveryDetails": null,
    "not_emails": null,
    "not_sms": null
  },
  {
    "units": [
      {
        "id": 11,
        "qty": 0
      },
      {
        "id": 12,
        "qty": 0
      }
    ],
    "id": 6263,
    "name": "",
    "client_number": "204",
    "PhoneNr": null,
    "webSite": null,
    "Address": "Bongaree QLD 4507, Australia",
    "lat": -27.063693,
    "lng": 153.157857,
    "zone": null,
    "defaultDeliveryDetails": null,
    "not_emails": null,
    "not_sms": null
  },
  {
    "units": [
      {
        "id": 11,
        "qty": 0
      },
      {
        "id": 12,
        "qty": 0
      }
    ],
    "id": 6264,
    "name": "",
    "client_number": "205",
    "PhoneNr": null,
    "webSite": null,
    "Address": "Bongaree QLD 4507, Australia",
    "lat": -27.128968,
    "lng": 153.048325,
    "zone": null,
    "defaultDeliveryDetails": null,
    "not_emails": null,
    "not_sms": null
  },
  {
    "units": [
      {
        "id": 11,
        "qty": 0
      },
      {
        "id": 12,
        "qty": 0
      }
    ],
    "id": 6265,
    "name": "",
    "client_number": "206",
    "PhoneNr": null,
    "webSite": null,
    "Address": "Burpengary QLD 4505, Australia",
    "lat": -27.153042,
    "lng": 152.973552,
    "zone": null,
    "defaultDeliveryDetails": null,
    "not_emails": null,
    "not_sms": null
  },
  {
    "units": [
      {
        "id": 11,
        "qty": 0
      },
      {
        "id": 12,
        "qty": 0
      }
    ],
    "id": 6266,
    "name": "",
    "client_number": "207",
    "PhoneNr": null,
    "webSite": null,
    "Address": "Burpengary QLD 4505, Australia",
    "lat": -27.155825,
    "lng": 152.975367,
    "zone": null,
    "defaultDeliveryDetails": null,
    "not_emails": null,
    "not_sms": null
  },
  {
    "units": [
      {
        "id": 11,
        "qty": 0
      },
      {
        "id": 12,
        "qty": 0
      }
    ],
    "id": 6267,
    "name": "",
    "client_number": "208",
    "PhoneNr": null,
    "webSite": null,
    "Address": "Morayfield Rd, Morayfield QLD 4506, Australia",
    "lat": -27.116173,
    "lng": 152.952795,
    "zone": null,
    "defaultDeliveryDetails": null,
    "not_emails": null,
    "not_sms": null
  },
  {
    "units": [
      {
        "id": 11,
        "qty": 0
      },
      {
        "id": 12,
        "qty": 0
      }
    ],
    "id": 6268,
    "name": "",
    "client_number": "209",
    "PhoneNr": null,
    "webSite": null,
    "Address": "22 Elliott St, Caboolture QLD 4510, Australia",
    "lat": -27.085753,
    "lng": 152.949005,
    "zone": null,
    "defaultDeliveryDetails": null,
    "not_emails": null,
    "not_sms": null
  },
  {
    "units": [
      {
        "id": 11,
        "qty": 0
      },
      {
        "id": 12,
        "qty": 0
      }
    ],
    "id": 6269,
    "name": "",
    "client_number": "210",
    "PhoneNr": null,
    "webSite": null,
    "Address": "Morayfield QLD 4506, Australia",
    "lat": -27.100148,
    "lng": 152.946035,
    "zone": null,
    "defaultDeliveryDetails": null,
    "not_emails": null,
    "not_sms": null
  },
  {
    "units": [
      {
        "id": 11,
        "qty": 0
      },
      {
        "id": 12,
        "qty": 0
      }
    ],
    "id": 6270,
    "name": "",
    "client_number": "211",
    "PhoneNr": null,
    "webSite": null,
    "Address": "Morayfield QLD 4506, Australia",
    "lat": -27.104132,
    "lng": 152.949532,
    "zone": null,
    "defaultDeliveryDetails": null,
    "not_emails": null,
    "not_sms": null
  },
  {
    "units": [
      {
        "id": 11,
        "qty": 0
      },
      {
        "id": 12,
        "qty": 0
      }
    ],
    "id": 6271,
    "name": "",
    "client_number": "212",
    "PhoneNr": null,
    "webSite": null,
    "Address": "Caboolture South QLD 4510, Australia",
    "lat": -27.094128,
    "lng": 152.952375,
    "zone": null,
    "defaultDeliveryDetails": null,
    "not_emails": null,
    "not_sms": null
  },
  {
    "units": [
      {
        "id": 11,
        "qty": 0
      },
      {
        "id": 12,
        "qty": 0
      }
    ],
    "id": 6272,
    "name": "",
    "client_number": "213",
    "PhoneNr": null,
    "webSite": null,
    "Address": "Caboolture QLD 4510, Australia",
    "lat": -27.077737,
    "lng": 152.964715,
    "zone": null,
    "defaultDeliveryDetails": null,
    "not_emails": null,
    "not_sms": null
  },
  {
    "units": [
      {
        "id": 11,
        "qty": 0
      },
      {
        "id": 12,
        "qty": 0
      }
    ],
    "id": 6273,
    "name": "",
    "client_number": "214",
    "PhoneNr": null,
    "webSite": null,
    "Address": "6 Piggott Rd, Bellmere QLD 4510, Australia",
    "lat": -27.087750,
    "lng": 152.927785,
    "zone": null,
    "defaultDeliveryDetails": null,
    "not_emails": null,
    "not_sms": null
  },
  {
    "units": [
      {
        "id": 11,
        "qty": 0
      },
      {
        "id": 12,
        "qty": 0
      }
    ],
    "id": 6274,
    "name": "",
    "client_number": "215",
    "PhoneNr": null,
    "webSite": null,
    "Address": "6 Piggott Rd, Bellmere QLD 4510, Australia",
    "lat": -26.955115,
    "lng": 152.777267,
    "zone": null,
    "defaultDeliveryDetails": null,
    "not_emails": null,
    "not_sms": null
  },
  {
    "units": [
      {
        "id": 11,
        "qty": 0
      },
      {
        "id": 12,
        "qty": 0
      }
    ],
    "id": 6275,
    "name": "",
    "client_number": "216",
    "PhoneNr": null,
    "webSite": null,
    "Address": "5 George St, Woodford QLD 4514, Australia",
    "lat": -26.952397,
    "lng": 152.778527,
    "zone": null,
    "defaultDeliveryDetails": null,
    "not_emails": null,
    "not_sms": null
  },
  {
    "units": [
      {
        "id": 11,
        "qty": 0
      },
      {
        "id": 12,
        "qty": 0
      }
    ],
    "id": 6276,
    "name": "",
    "client_number": "217",
    "PhoneNr": null,
    "webSite": null,
    "Address": "50 Hoopers Rd, Kunda Park QLD 4556, Australia",
    "lat": -26.658832,
    "lng": 153.038445,
    "zone": null,
    "defaultDeliveryDetails": null,
    "not_emails": null,
    "not_sms": null
  },
  {
    "units": [
      {
        "id": 11,
        "qty": 0
      },
      {
        "id": 12,
        "qty": 0
      }
    ],
    "id": 6277,
    "name": "",
    "client_number": "218",
    "PhoneNr": null,
    "webSite": null,
    "Address": "50 Hoopers Rd, Kunda Park QLD 4556, Australia",
    "lat": -26.658777,
    "lng": 153.038353,
    "zone": null,
    "defaultDeliveryDetails": null,
    "not_emails": null,
    "not_sms": null
  },
  {
    "units": [
      {
        "id": 11,
        "qty": 0
      },
      {
        "id": 12,
        "qty": 0
      }
    ],
    "id": 6278,
    "name": "",
    "client_number": "219",
    "PhoneNr": null,
    "webSite": null,
    "Address": "50 Hoopers Rd, Kunda Park QLD 4556, Australia",
    "lat": -26.658903,
    "lng": 153.038562,
    "zone": null,
    "defaultDeliveryDetails": null,
    "not_emails": null,
    "not_sms": null
  },
  {
    "units": [
      {
        "id": 11,
        "qty": 0
      },
      {
        "id": 12,
        "qty": 0
      }
    ],
    "id": 6279,
    "name": "",
    "client_number": "220",
    "PhoneNr": null,
    "webSite": null,
    "Address": "21 Charles Ulm Pl, Eagle Farm QLD 4009, Australia",
    "lat": -27.419730,
    "lng": 153.091165,
    "zone": null,
    "defaultDeliveryDetails": null,
    "not_emails": null,
    "not_sms": null
  },
  {
    "units": [
      {
        "id": 11,
        "qty": 0
      },
      {
        "id": 12,
        "qty": 0
      }
    ],
    "id": 6280,
    "name": "",
    "client_number": "221",
    "PhoneNr": null,
    "webSite": null,
    "Address": "20 William Farrior Pl, Eagle Farm QLD 4009, Australia",
    "lat": -27.420110,
    "lng": 153.084900,
    "zone": null,
    "defaultDeliveryDetails": null,
    "not_emails": null,
    "not_sms": null
  },
  {
    "units": [
      {
        "id": 11,
        "qty": 0
      },
      {
        "id": 12,
        "qty": 0
      }
    ],
    "id": 6281,
    "name": "",
    "client_number": "222",
    "PhoneNr": null,
    "webSite": null,
    "Address": "20 William Farrior Pl, Eagle Farm QLD 4009, Australia",
    "lat": -27.580285,
    "lng": 153.124930,
    "zone": null,
    "defaultDeliveryDetails": null,
    "not_emails": null,
    "not_sms": null
  },
  {
    "units": [
      {
        "id": 11,
        "qty": 0
      },
      {
        "id": 12,
        "qty": 0
      }
    ],
    "id": 6282,
    "name": "",
    "client_number": "223",
    "PhoneNr": null,
    "webSite": null,
    "Address": "694 Rochedale Rd, Rochedale QLD 4123, Australia",
    "lat": -27.575538,
    "lng": 153.087843,
    "zone": null,
    "defaultDeliveryDetails": null,
    "not_emails": null,
    "not_sms": null
  },
  {
    "units": [
      {
        "id": 11,
        "qty": 0
      },
      {
        "id": 12,
        "qty": 0
      }
    ],
    "id": 6283,
    "name": "",
    "client_number": "224",
    "PhoneNr": null,
    "webSite": null,
    "Address": "253 Padstow Rd, Eight Mile Plains QLD 4113, Australia",
    "lat": -27.628377,
    "lng": 153.118403,
    "zone": null,
    "defaultDeliveryDetails": null,
    "not_emails": null,
    "not_sms": null
  },
  {
    "units": [
      {
        "id": 11,
        "qty": 0
      },
      {
        "id": 12,
        "qty": 0
      }
    ],
    "id": 6284,
    "name": "",
    "client_number": "225",
    "PhoneNr": null,
    "webSite": null,
    "Address": "127 Kingston Rd, Woodridge QLD 4114, Australia",
    "lat": -27.636993,
    "lng": 153.135437,
    "zone": null,
    "defaultDeliveryDetails": null,
    "not_emails": null,
    "not_sms": null
  },
  {
    "units": [
      {
        "id": 11,
        "qty": 0
      },
      {
        "id": 12,
        "qty": 0
      }
    ],
    "id": 6285,
    "name": "",
    "client_number": "226",
    "PhoneNr": null,
    "webSite": null,
    "Address": "Crossover, Slacks Creek QLD 4127, Australia",
    "lat": -27.659760,
    "lng": 153.169052,
    "zone": null,
    "defaultDeliveryDetails": null,
    "not_emails": null,
    "not_sms": null
  },
  {
    "units": [
      {
        "id": 11,
        "qty": 0
      },
      {
        "id": 12,
        "qty": 0
      }
    ],
    "id": 6286,
    "name": "",
    "client_number": "227",
    "PhoneNr": null,
    "webSite": null,
    "Address": "Service Rd, Shailer Park QLD 4128, Australia",
    "lat": -27.658078,
    "lng": 153.169925,
    "zone": null,
    "defaultDeliveryDetails": null,
    "not_emails": null,
    "not_sms": null
  },
  {
    "units": [
      {
        "id": 11,
        "qty": 0
      },
      {
        "id": 12,
        "qty": 0
      }
    ],
    "id": 6287,
    "name": "",
    "client_number": "228",
    "PhoneNr": null,
    "webSite": null,
    "Address": "Shailer Park QLD 4128, Australia",
    "lat": -27.661033,
    "lng": 153.171402,
    "zone": null,
    "defaultDeliveryDetails": null,
    "not_emails": null,
    "not_sms": null
  },
  {
    "units": [
      {
        "id": 11,
        "qty": 0
      },
      {
        "id": 12,
        "qty": 0
      }
    ],
    "id": 6288,
    "name": "",
    "client_number": "229",
    "PhoneNr": null,
    "webSite": null,
    "Address": "Shailer Park QLD 4128, Australia",
    "lat": -27.655340,
    "lng": 153.163013,
    "zone": null,
    "defaultDeliveryDetails": null,
    "not_emails": null,
    "not_sms": null
  },
  {
    "units": [
      {
        "id": 11,
        "qty": 0
      },
      {
        "id": 12,
        "qty": 0
      }
    ],
    "id": 6289,
    "name": "",
    "client_number": "230",
    "PhoneNr": null,
    "webSite": null,
    "Address": "Pacific Hwy, Slacks Creek QLD 4127, Australia",
    "lat": -27.642368,
    "lng": 153.114605,
    "zone": null,
    "defaultDeliveryDetails": null,
    "not_emails": null,
    "not_sms": null
  },
  {
    "units": [
      {
        "id": 11,
        "qty": 0
      },
      {
        "id": 12,
        "qty": 0
      }
    ],
    "id": 6290,
    "name": "",
    "client_number": "231",
    "PhoneNr": null,
    "webSite": null,
    "Address": "Logan Central QLD 4114, Australia",
    "lat": -27.595622,
    "lng": 153.121353,
    "zone": null,
    "defaultDeliveryDetails": null,
    "not_emails": null,
    "not_sms": null
  },
  {
    "units": [
      {
        "id": 11,
        "qty": 0
      },
      {
        "id": 12,
        "qty": 0
      }
    ],
    "id": 6291,
    "name": "",
    "client_number": "232",
    "PhoneNr": null,
    "webSite": null,
    "Address": "720 Underwood Rd, Rochedale QLD 4123, Australia",
    "lat": -27.597420,
    "lng": 153.109197,
    "zone": null,
    "defaultDeliveryDetails": null,
    "not_emails": null,
    "not_sms": null
  },
  {
    "units": [
      {
        "id": 11,
        "qty": 0
      },
      {
        "id": 12,
        "qty": 0
      }
    ],
    "id": 6292,
    "name": "",
    "client_number": "233",
    "PhoneNr": null,
    "webSite": null,
    "Address": "2812 Logan Rd, Underwood QLD 4119, Australia",
    "lat": -27.603892,
    "lng": 153.089293,
    "zone": null,
    "defaultDeliveryDetails": null,
    "not_emails": null,
    "not_sms": null
  },
  {
    "units": [
      {
        "id": 11,
        "qty": 0
      },
      {
        "id": 12,
        "qty": 0
      }
    ],
    "id": 6293,
    "name": "",
    "client_number": "234",
    "PhoneNr": null,
    "webSite": null,
    "Address": "19 Donegal St, Kuraby QLD 4112, Australia",
    "lat": -27.606110,
    "lng": 153.109583,
    "zone": null,
    "defaultDeliveryDetails": null,
    "not_emails": null,
    "not_sms": null
  },
  {
    "units": [
      {
        "id": 11,
        "qty": 0
      },
      {
        "id": 12,
        "qty": 0
      }
    ],
    "id": 6294,
    "name": "",
    "client_number": "235",
    "PhoneNr": null,
    "webSite": null,
    "Address": "22A Patricia Ave, Woodridge QLD 4114, Australia",
    "lat": -27.629382,
    "lng": 153.093883,
    "zone": null,
    "defaultDeliveryDetails": null,
    "not_emails": null,
    "not_sms": null
  },
  {
    "units": [
      {
        "id": 11,
        "qty": 0
      },
      {
        "id": 12,
        "qty": 0
      }
    ],
    "id": 6295,
    "name": "",
    "client_number": "236",
    "PhoneNr": null,
    "webSite": null,
    "Address": "22A Patricia Ave, Woodridge QLD 4114, Australia",
    "lat": -27.629425,
    "lng": 153.093882,
    "zone": null,
    "defaultDeliveryDetails": null,
    "not_emails": null,
    "not_sms": null
  },
  {
    "units": [
      {
        "id": 11,
        "qty": 0
      },
      {
        "id": 12,
        "qty": 0
      }
    ],
    "id": 6296,
    "name": "",
    "client_number": "237",
    "PhoneNr": null,
    "webSite": null,
    "Address": "22A Patricia Ave, Woodridge QLD 4114, Australia",
    "lat": -27.642963,
    "lng": 153.099350,
    "zone": null,
    "defaultDeliveryDetails": null,
    "not_emails": null,
    "not_sms": null
  },
  {
    "units": [
      {
        "id": 11,
        "qty": 0
      },
      {
        "id": 12,
        "qty": 0
      }
    ],
    "id": 6297,
    "name": "",
    "client_number": "238",
    "PhoneNr": null,
    "webSite": null,
    "Address": "Wembley Rd, Logan Central QLD 4114, Australia",
    "lat": -27.604035,
    "lng": 153.089243,
    "zone": null,
    "defaultDeliveryDetails": null,
    "not_emails": null,
    "not_sms": null
  },
  {
    "units": [
      {
        "id": 11,
        "qty": 0
      },
      {
        "id": 12,
        "qty": 0
      }
    ],
    "id": 6298,
    "name": "",
    "client_number": "239",
    "PhoneNr": null,
    "webSite": null,
    "Address": "16 Mode Pl, Eight Mile Plains QLD 4113, Australia",
    "lat": -27.593680,
    "lng": 153.099983,
    "zone": null,
    "defaultDeliveryDetails": null,
    "not_emails": null,
    "not_sms": null
  },
  {
    "units": [
      {
        "id": 11,
        "qty": 0
      },
      {
        "id": 12,
        "qty": 0
      }
    ],
    "id": 6299,
    "name": "",
    "client_number": "252",
    "PhoneNr": null,
    "webSite": null,
    "Address": "23 Piper Dr, Ballina NSW 2478, Australia",
    "lat": -28.846570,
    "lng": 153.554085,
    "zone": null,
    "defaultDeliveryDetails": null,
    "not_emails": null,
    "not_sms": null
  },
  {
    "units": [
      {
        "id": 11,
        "qty": 0
      },
      {
        "id": 12,
        "qty": 0
      }
    ],
    "id": 6300,
    "name": "",
    "client_number": "253",
    "PhoneNr": null,
    "webSite": null,
    "Address": "23 Piper Dr, Ballina NSW 2478, Australia",
    "lat": -28.109970,
    "lng": 153.441087,
    "zone": null,
    "defaultDeliveryDetails": null,
    "not_emails": null,
    "not_sms": null
  },
  {
    "units": [
      {
        "id": 11,
        "qty": 0
      },
      {
        "id": 12,
        "qty": 0
      }
    ],
    "id": 6301,
    "name": "",
    "client_number": "254",
    "PhoneNr": null,
    "webSite": null,
    "Address": "West Burleigh Rd, Burleigh Heads QLD 4220, Australia",
    "lat": -28.102438,
    "lng": 153.414580,
    "zone": null,
    "defaultDeliveryDetails": null,
    "not_emails": null,
    "not_sms": null
  },
  {
    "units": [
      {
        "id": 11,
        "qty": 0
      },
      {
        "id": 12,
        "qty": 0
      }
    ],
    "id": 6302,
    "name": "",
    "client_number": "255",
    "PhoneNr": null,
    "webSite": null,
    "Address": "Cool Cocktails Queensland, 29 Ern Harley Dr, Burleigh Heads QLD 4220, Australia",
    "lat": -28.098390,
    "lng": 153.441657,
    "zone": null,
    "defaultDeliveryDetails": null,
    "not_emails": null,
    "not_sms": null
  },
  {
    "units": [
      {
        "id": 11,
        "qty": 0
      },
      {
        "id": 12,
        "qty": 0
      }
    ],
    "id": 6303,
    "name": "",
    "client_number": "256",
    "PhoneNr": null,
    "webSite": null,
    "Address": "Burleigh Waters QLD 4220, Australia",
    "lat": -28.076977,
    "lng": 153.387058,
    "zone": null,
    "defaultDeliveryDetails": null,
    "not_emails": null,
    "not_sms": null
  },
  {
    "units": [
      {
        "id": 11,
        "qty": 0
      },
      {
        "id": 12,
        "qty": 0
      }
    ],
    "id": 6304,
    "name": "",
    "client_number": "257",
    "PhoneNr": null,
    "webSite": null,
    "Address": "Robina QLD 4226, Australia",
    "lat": -28.100498,
    "lng": 153.423742,
    "zone": null,
    "defaultDeliveryDetails": null,
    "not_emails": null,
    "not_sms": null
  },
  {
    "units": [
      {
        "id": 11,
        "qty": 0
      },
      {
        "id": 12,
        "qty": 0
      }
    ],
    "id": 6305,
    "name": "",
    "client_number": "258",
    "PhoneNr": null,
    "webSite": null,
    "Address": "Burleigh Waters QLD 4220, Australia",
    "lat": -28.075972,
    "lng": 153.423618,
    "zone": null,
    "defaultDeliveryDetails": null,
    "not_emails": null,
    "not_sms": null
  },
  {
    "units": [
      {
        "id": 11,
        "qty": 0
      },
      {
        "id": 12,
        "qty": 0
      }
    ],
    "id": 6306,
    "name": "",
    "client_number": "259",
    "PhoneNr": null,
    "webSite": null,
    "Address": "Burleigh Waters QLD 4220, Australia",
    "lat": -28.059375,
    "lng": 153.438702,
    "zone": null,
    "defaultDeliveryDetails": null,
    "not_emails": null,
    "not_sms": null
  },
  {
    "units": [
      {
        "id": 11,
        "qty": 0
      },
      {
        "id": 12,
        "qty": 0
      }
    ],
    "id": 6307,
    "name": "",
    "client_number": "260",
    "PhoneNr": null,
    "webSite": null,
    "Address": "2217 Gold Coast Hwy, Mermaid Beach QLD 4218, Australia",
    "lat": -28.063507,
    "lng": 153.404953,
    "zone": null,
    "defaultDeliveryDetails": null,
    "not_emails": null,
    "not_sms": null
  },
  {
    "units": [
      {
        "id": 11,
        "qty": 0
      },
      {
        "id": 12,
        "qty": 0
      }
    ],
    "id": 6308,
    "name": "",
    "client_number": "261",
    "PhoneNr": null,
    "webSite": null,
    "Address": "199 Ron Penhaligon Way, Robina QLD 4226, Australia",
    "lat": -28.201750,
    "lng": 153.545150,
    "zone": null,
    "defaultDeliveryDetails": null,
    "not_emails": null,
    "not_sms": null
  },
  {
    "units": [
      {
        "id": 11,
        "qty": 0
      },
      {
        "id": 12,
        "qty": 0
      }
    ],
    "id": 6309,
    "name": "",
    "client_number": "262",
    "PhoneNr": null,
    "webSite": null,
    "Address": "Tweed Heads South NSW 2486, Australia",
    "lat": -28.202745,
    "lng": 153.546760,
    "zone": null,
    "defaultDeliveryDetails": null,
    "not_emails": null,
    "not_sms": null
  },
  {
    "units": [
      {
        "id": 11,
        "qty": 0
      },
      {
        "id": 12,
        "qty": 0
      }
    ],
    "id": 6310,
    "name": "",
    "client_number": "263",
    "PhoneNr": null,
    "webSite": null,
    "Address": "Tweed Heads South NSW 2486, Australia",
    "lat": -28.328180,
    "lng": 153.406445,
    "zone": null,
    "defaultDeliveryDetails": null,
    "not_emails": null,
    "not_sms": null
  },
  {
    "units": [
      {
        "id": 11,
        "qty": 0
      },
      {
        "id": 12,
        "qty": 0
      }
    ],
    "id": 6311,
    "name": "",
    "client_number": "264",
    "PhoneNr": null,
    "webSite": null,
    "Address": "230 Tweed Valley Way, South Murwillumbah NSW 2484, Australia",
    "lat": -28.327403,
    "lng": 153.397123,
    "zone": null,
    "defaultDeliveryDetails": null,
    "not_emails": null,
    "not_sms": null
  },
  {
    "units": [
      {
        "id": 11,
        "qty": 0
      },
      {
        "id": 12,
        "qty": 0
      }
    ],
    "id": 6312,
    "name": "",
    "client_number": "265",
    "PhoneNr": null,
    "webSite": null,
    "Address": "Proudfoots Ln, Murwillumbah NSW 2484, Australia",
    "lat": -28.340695,
    "lng": 153.374938,
    "zone": null,
    "defaultDeliveryDetails": null,
    "not_emails": null,
    "not_sms": null
  },
  {
    "units": [
      {
        "id": 11,
        "qty": 0
      },
      {
        "id": 12,
        "qty": 0
      }
    ],
    "id": 6313,
    "name": "",
    "client_number": "266",
    "PhoneNr": null,
    "webSite": null,
    "Address": "63 Kyogle Rd, Bray Park NSW 2484, Australia",
    "lat": -28.852610,
    "lng": 153.556485,
    "zone": null,
    "defaultDeliveryDetails": null,
    "not_emails": null,
    "not_sms": null
  },
  {
    "units": [
      {
        "id": 11,
        "qty": 0
      },
      {
        "id": 12,
        "qty": 0
      }
    ],
    "id": 6314,
    "name": "",
    "client_number": "267",
    "PhoneNr": null,
    "webSite": null,
    "Address": "Pacific Palms Village, 3 Southern Cross Dr, Ballina NSW 2478, Australia",
    "lat": -28.852430,
    "lng": 153.556395,
    "zone": null,
    "defaultDeliveryDetails": null,
    "not_emails": null,
    "not_sms": null
  },
  {
    "units": [
      {
        "id": 11,
        "qty": 0
      },
      {
        "id": 12,
        "qty": 0
      }
    ],
    "id": 6315,
    "name": "",
    "client_number": "268",
    "PhoneNr": null,
    "webSite": null,
    "Address": "21 De-Havilland Cres, Ballina NSW 2478, Australia",
    "lat": -28.846568,
    "lng": 153.553997,
    "zone": null,
    "defaultDeliveryDetails": null,
    "not_emails": null,
    "not_sms": null
  },
  {
    "units": [
      {
        "id": 11,
        "qty": 0
      },
      {
        "id": 12,
        "qty": 0
      }
    ],
    "id": 6316,
    "name": "",
    "client_number": "269",
    "PhoneNr": null,
    "webSite": null,
    "Address": "21 De-Havilland Cres, Ballina NSW 2478, Australia",
    "lat": -28.846567,
    "lng": 153.554000,
    "zone": null,
    "defaultDeliveryDetails": null,
    "not_emails": null,
    "not_sms": null
  },
  {
    "units": [
      {
        "id": 11,
        "qty": 0
      },
      {
        "id": 12,
        "qty": 0
      }
    ],
    "id": 6317,
    "name": "",
    "client_number": "270",
    "PhoneNr": null,
    "webSite": null,
    "Address": "23 Piper Dr, Ballina NSW 2478, Australia",
    "lat": -28.846470,
    "lng": 153.553978,
    "zone": null,
    "defaultDeliveryDetails": null,
    "not_emails": null,
    "not_sms": null
  },
  {
    "units": [
      {
        "id": 11,
        "qty": 2
      },
      {
        "id": 12,
        "qty": -10
      }
    ],
    "id": 984,
    "name": "A&T Trading Co. Pty Limited",
    "client_number": "0001",
    "PhoneNr": "0400223361",
    "webSite": "",
    "Address": "412/49 Queens Rd, Five Dock NSW 2046, Australia",
    "lat": -33.870060,
    "lng": 151.122624,
    "zone": "North",
    "defaultDeliveryDetails": "Secret Password Second Floor",
    "not_emails": "theo@solbox.com.au; mikko@solbox.com.au; claire@solbox.it",
    "not_sms": "0400223361"
  },
  {
    "units": [
      {
        "id": 11,
        "qty": 2
      },
      {
        "id": 12,
        "qty": 5
      }
    ],
    "id": 985,
    "name": "ABC Transport Pty Ltd",
    "client_number": "1122",
    "PhoneNr": "0400223361",
    "webSite": "",
    "Address": "100 Harris St, Pyrmont NSW 2009, Australia",
    "lat": -33.868439,
    "lng": 151.193741,
    "zone": null,
    "defaultDeliveryDetails": "",
    "not_emails": "theo@solbox.com.au; mikko@solbox.com.au; claire@solbox.it",
    "not_sms": "0400223361"
  },
  {
    "units": [
      {
        "id": 11,
        "qty": 0
      },
      {
        "id": 12,
        "qty": 0
      }
    ],
    "id": 4452,
    "name": "Abloom Florist",
    "client_number": "2302",
    "PhoneNr": null,
    "webSite": null,
    "Address": "Shop 19a/141-151 Allambie Rd, Allambie Heights NSW 2100, Australia",
    "lat": -33.765817,
    "lng": 151.250488,
    "zone": null,
    "defaultDeliveryDetails": null,
    "not_emails": "hello@abloom.com.au",
    "not_sms": null
  },
  {
    "units": [
      {
        "id": 11,
        "qty": 0
      },
      {
        "id": 12,
        "qty": 0
      }
    ],
    "id": 986,
    "name": "Alexandria Warehouse",
    "client_number": "7313",
    "PhoneNr": "0400223361",
    "webSite": "",
    "Address": "8-40 Euston Rd, Alexandria NSW 2015, Australia",
    "lat": -33.905659,
    "lng": 151.193588,
    "zone": null,
    "defaultDeliveryDetails": "",
    "not_emails": "theo@solbox.com.au; mikko@solbox.com.au",
    "not_sms": "0400223361"
  },
  {
    "units": [
      {
        "id": 11,
        "qty": -109
      },
      {
        "id": 12,
        "qty": -130
      }
    ],
    "id": 987,
    "name": "All Seas",
    "client_number": "0002",
    "PhoneNr": "0415709970",
    "webSite": "",
    "Address": "Gipps St & Pyrmont St, Pyrmont NSW 2009, Australia",
    "lat": -33.871201,
    "lng": 151.195999,
    "zone": null,
    "defaultDeliveryDetails": "",
    "not_emails": "theo@solbox.com.au; mikko@solbox.com.lawrence@solbox.itau; claire@solbox.it",
    "not_sms": "0415709970"
  },
  {
    "units": [
      {
        "id": 11,
        "qty": 66
      },
      {
        "id": 12,
        "qty": 6
      }
    ],
    "id": 4485,
    "name": "Alpha Restaurant",
    "client_number": "MD001",
    "PhoneNr": "0400223361",
    "webSite": null,
    "Address": "C0135/238 Castlereagh St, Sydney NSW 2000, Australia",
    "lat": -33.875310,
    "lng": 151.209200,
    "zone": null,
    "defaultDeliveryDetails": null,
    "not_emails": "theo@solbox.it",
    "not_sms": "0400223361"
  },
  {
    "units": [
      {
        "id": 11,
        "qty": 0
      },
      {
        "id": 12,
        "qty": 0
      }
    ],
    "id": 4475,
    "name": "Art de Cake ",
    "client_number": "2324",
    "PhoneNr": null,
    "webSite": null,
    "Address": "9 The Avenue, Hunters Hill NSW 2110, Australia",
    "lat": -33.833789,
    "lng": 151.147010,
    "zone": null,
    "defaultDeliveryDetails": null,
    "not_emails": "lisa@artdemasque.com.au",
    "not_sms": null
  },
  {
    "units": [
      {
        "id": 11,
        "qty": 0
      },
      {
        "id": 12,
        "qty": 0
      }
    ],
    "id": 988,
    "name": "AST Services",
    "client_number": "111_2",
    "PhoneNr": "0400223361",
    "webSite": "",
    "Address": "237 O'Riordan St, Mascot NSW 2020, Australia",
    "lat": -33.930061,
    "lng": 151.186508,
    "zone": null,
    "defaultDeliveryDetails": "",
    "not_emails": "theo@solbox.com.au; mikko@solbox.com.au",
    "not_sms": "0400223361"
  },
  {
    "units": [
      {
        "id": 11,
        "qty": 0
      },
      {
        "id": 12,
        "qty": 0
      }
    ],
    "id": 4478,
    "name": "Babel Cafe",
    "client_number": "2326",
    "PhoneNr": null,
    "webSite": null,
    "Address": "327 Bay St, Brighton-Le-Sands NSW 2216, Australia",
    "lat": -33.960494,
    "lng": 151.154691,
    "zone": null,
    "defaultDeliveryDetails": null,
    "not_emails": "babelbrighton@gmail.com",
    "not_sms": null
  },
  {
    "units": [
      {
        "id": 11,
        "qty": 0
      },
      {
        "id": 12,
        "qty": 0
      }
    ],
    "id": 4428,
    "name": "Bakaliko & Co",
    "client_number": "2276",
    "PhoneNr": "0450054210",
    "webSite": null,
    "Address": "115B Kurraba Rd, Kurraba Point NSW 2089, Australia",
    "lat": -33.843416,
    "lng": 151.222813,
    "zone": null,
    "defaultDeliveryDetails": null,
    "not_emails": "rovolis@bigpond.com",
    "not_sms": "0450054210"
  },
  {
    "units": [
      {
        "id": 11,
        "qty": 66
      },
      {
        "id": 12,
        "qty": 7
      }
    ],
    "id": 4486,
    "name": "Bar Fino CafeCOD",
    "client_number": "MD002",
    "PhoneNr": "0400223361",
    "webSite": null,
    "Address": "19 Martin Pl, Sydney NSW 2000, Australia",
    "lat": -33.868760,
    "lng": 151.209000,
    "zone": null,
    "defaultDeliveryDetails": null,
    "not_emails": "theo@solbox.it",
    "not_sms": "0400223361"
  },
  {
    "units": [
      {
        "id": 11,
        "qty": 0
      },
      {
        "id": 12,
        "qty": 0
      }
    ],
    "id": 4487,
    "name": "Barrio Cellar",
    "client_number": "MD003",
    "PhoneNr": "0400223361",
    "webSite": null,
    "Address": "58 Elizabeth St, Sydney NSW 2000, Australia",
    "lat": -33.868000,
    "lng": 151.210700,
    "zone": null,
    "defaultDeliveryDetails": null,
    "not_emails": "theo@solbox.it",
    "not_sms": "0400223361"
  },
  {
    "units": [
      {
        "id": 11,
        "qty": 0
      },
      {
        "id": 12,
        "qty": 0
      }
    ],
    "id": 4466,
    "name": "Belfield on Botany",
    "client_number": "2315",
    "PhoneNr": null,
    "webSite": null,
    "Address": "1/797 Botany Rd, Rosebery NSW 2018, Australia",
    "lat": -33.918496,
    "lng": 151.199721,
    "zone": null,
    "defaultDeliveryDetails": null,
    "not_emails": "garychung@live.com",
    "not_sms": null
  },
  {
    "units": [
      {
        "id": 11,
        "qty": 10
      },
      {
        "id": 12,
        "qty": 49
      }
    ],
    "id": 3814,
    "name": "BEROWRA MEATS",
    "client_number": "BEROW",
    "PhoneNr": "",
    "webSite": "",
    "Address": "12/1C Turner Rd, Berowra Heights NSW 2082, Australia",
    "lat": -33.612916,
    "lng": 151.138456,
    "zone": null,
    "defaultDeliveryDetails": "",
    "not_emails": "theo@solbox.it",
    "not_sms": null
  },
  {
    "units": [
      {
        "id": 11,
        "qty": 0
      },
      {
        "id": 12,
        "qty": 0
      }
    ],
    "id": 4513,
    "name": "Beta Bar",
    "client_number": "MD029",
    "PhoneNr": "0400223361",
    "webSite": null,
    "Address": "Level 1/238 Castlereagh St, Sydney NSW 2000, Australia",
    "lat": -33.875310,
    "lng": 151.209200,
    "zone": null,
    "defaultDeliveryDetails": null,
    "not_emails": "theo@solbox.it",
    "not_sms": "0400223361"
  },
  {
    "units": [
      {
        "id": 11,
        "qty": 0
      },
      {
        "id": 12,
        "qty": 0
      }
    ],
    "id": 4462,
    "name": "Black Sheep Coffee Traders",
    "client_number": "2311",
    "PhoneNr": null,
    "webSite": null,
    "Address": "8B Shaw St, Kogarah NSW 2217, Australia",
    "lat": -33.972513,
    "lng": 151.135321,
    "zone": null,
    "defaultDeliveryDetails": null,
    "not_emails": "chris@black-sheep.com.au",
    "not_sms": null
  },
  {
    "units": [
      {
        "id": 11,
        "qty": 0
      },
      {
        "id": 12,
        "qty": 0
      }
    ],
    "id": 4433,
    "name": "Bodyfit Miranda",
    "client_number": "2281",
    "PhoneNr": "",
    "webSite": null,
    "Address": "522 Kingsway, Miranda NSW 2228, Australia",
    "lat": -34.034884,
    "lng": 151.104388,
    "zone": null,
    "defaultDeliveryDetails": null,
    "not_emails": "pamela@bodyfitfitnesscentre.com.au",
    "not_sms": ""
  },
  {
    "units": [
      {
        "id": 11,
        "qty": 0
      },
      {
        "id": 12,
        "qty": 0
      }
    ],
    "id": 4434,
    "name": "Bodyrock Eats Pty Ltd",
    "client_number": "2282",
    "PhoneNr": "0426162611",
    "webSite": null,
    "Address": "395 W Botany St, Rockdale NSW 2216, Australia",
    "lat": -33.959039,
    "lng": 151.144962,
    "zone": null,
    "defaultDeliveryDetails": null,
    "not_emails": "bodyrockcafe@hotmail.com",
    "not_sms": "0426162611"
  },
  {
    "units": [
      {
        "id": 11,
        "qty": 22
      },
      {
        "id": 12,
        "qty": 8
      }
    ],
    "id": 4537,
    "name": "Bondi Beach Public Bar",
    "client_number": "MD053",
    "PhoneNr": "0404888920",
    "webSite": null,
    "Address": "6 Beach Rd, Bondi Beach NSW 2026, Australia",
    "lat": -33.888770,
    "lng": 151.275800,
    "zone": null,
    "defaultDeliveryDetails": null,
    "not_emails": "amouradian@visiontrak.com.au",
    "not_sms": "0404888920"
  },
  {
    "units": [
      {
        "id": 11,
        "qty": 99
      },
      {
        "id": 12,
        "qty": 55
      }
    ],
    "id": 4488,
    "name": "Bondi Bowling Club",
    "client_number": "MD004",
    "PhoneNr": "0400223361",
    "webSite": null,
    "Address": "1 Warners Ave, North Bondi NSW 2026, Australia",
    "lat": -33.884280,
    "lng": 151.270700,
    "zone": null,
    "defaultDeliveryDetails": null,
    "not_emails": "theo@solbox.it",
    "not_sms": "0400223361"
  },
  {
    "units": [
      {
        "id": 11,
        "qty": 0
      },
      {
        "id": 12,
        "qty": 0
      }
    ],
    "id": 4489,
    "name": "Bondi Hardware",
    "client_number": "MD005",
    "PhoneNr": "0400223361",
    "webSite": null,
    "Address": "39 Hall St, Bondi Beach NSW 2026, Australia",
    "lat": -33.890200,
    "lng": 151.272900,
    "zone": null,
    "defaultDeliveryDetails": null,
    "not_emails": "theo@solbox.it",
    "not_sms": "0400223361"
  },
  {
    "units": [
      {
        "id": 11,
        "qty": 0
      },
      {
        "id": 12,
        "qty": 0
      }
    ],
    "id": 4514,
    "name": "Bondi Meal Prep",
    "client_number": "MD030",
    "PhoneNr": "0400223361",
    "webSite": null,
    "Address": "12 Old South Head Rd, Vaucluse NSW 2030, Australia",
    "lat": -33.864720,
    "lng": 151.278200,
    "zone": null,
    "defaultDeliveryDetails": null,
    "not_emails": "theo@solbox.it",
    "not_sms": "0400223361"
  },
  {
    "units": [
      {
        "id": 11,
        "qty": 0
      },
      {
        "id": 12,
        "qty": 0
      }
    ],
    "id": 4469,
    "name": "Brunch Cafe and Grill",
    "client_number": "2318",
    "PhoneNr": null,
    "webSite": null,
    "Address": "101 Clapham Rd, Sefton NSW 2162, Australia",
    "lat": -33.883993,
    "lng": 151.012046,
    "zone": null,
    "defaultDeliveryDetails": null,
    "not_emails": "rmastrocco@gmail.com",
    "not_sms": null
  },
  {
    "units": [
      {
        "id": 11,
        "qty": 22
      },
      {
        "id": 12,
        "qty": 55
      }
    ],
    "id": 4490,
    "name": "Bun Me - MLC",
    "client_number": "MD006",
    "PhoneNr": "0400223361",
    "webSite": null,
    "Address": "19 Martin Pl, Sydney NSW 2000, Australia",
    "lat": -33.868760,
    "lng": 151.209000,
    "zone": null,
    "defaultDeliveryDetails": null,
    "not_emails": "theo@solbox.it",
    "not_sms": "0400223361"
  },
  {
    "units": [
      {
        "id": 11,
        "qty": 0
      },
      {
        "id": 12,
        "qty": 0
      }
    ],
    "id": 4491,
    "name": "Caffeine Cartel",
    "client_number": "MD007",
    "PhoneNr": "0400223361",
    "webSite": null,
    "Address": "32 Martin Pl, Sydney NSW 2000, Australia",
    "lat": -33.867340,
    "lng": 151.209300,
    "zone": null,
    "defaultDeliveryDetails": null,
    "not_emails": "theo@solbox.it",
    "not_sms": "0400223361"
  },
  {
    "units": [
      {
        "id": 11,
        "qty": 0
      },
      {
        "id": 12,
        "qty": 0
      }
    ],
    "id": 4476,
    "name": "Calico Cafe",
    "client_number": "2325",
    "PhoneNr": null,
    "webSite": null,
    "Address": "146 Abercrombie St, Redfern NSW 2016, Australia",
    "lat": -33.889102,
    "lng": 151.198703,
    "zone": null,
    "defaultDeliveryDetails": null,
    "not_emails": "info@calicocafe.com.au",
    "not_sms": null
  },
  {
    "units": [
      {
        "id": 11,
        "qty": 0
      },
      {
        "id": 12,
        "qty": 0
      }
    ],
    "id": 4515,
    "name": "Caterez at Challenger",
    "client_number": "MD031",
    "PhoneNr": "0400223361",
    "webSite": null,
    "Address": "Level 2/5 Martin Pl, Sydney NSW 2000, Australia",
    "lat": -33.868020,
    "lng": 151.208700,
    "zone": null,
    "defaultDeliveryDetails": null,
    "not_emails": "theo@solbox.it",
    "not_sms": "0400223361"
  },
  {
    "units": [
      {
        "id": 11,
        "qty": 0
      },
      {
        "id": 12,
        "qty": 0
      }
    ],
    "id": 4492,
    "name": "Catering Projects Sydney",
    "client_number": "MD008",
    "PhoneNr": "0400223361",
    "webSite": null,
    "Address": "60 Phillip St, Sydney NSW 2000, Australia",
    "lat": -33.864350,
    "lng": 151.211900,
    "zone": null,
    "defaultDeliveryDetails": null,
    "not_emails": "theo@solbox.it",
    "not_sms": "0400223361"
  },
  {
    "units": [
      {
        "id": 11,
        "qty": 0
      },
      {
        "id": 12,
        "qty": 0
      }
    ],
    "id": 5163,
    "name": "CD Test 01",
    "client_number": "CD001",
    "PhoneNr": "",
    "webSite": "",
    "Address": "100 Harris St, Pyrmont NSW 2009, Australia",
    "lat": -33.868440,
    "lng": 151.193740,
    "zone": null,
    "defaultDeliveryDetails": "",
    "not_emails": "",
    "not_sms": null
  },
  {
    "units": [
      {
        "id": 11,
        "qty": 0
      },
      {
        "id": 12,
        "qty": 0
      }
    ],
    "id": 5164,
    "name": "CD Test 02",
    "client_number": "CD002",
    "PhoneNr": "",
    "webSite": "",
    "Address": "131 York St, Sydney NSW 2000, Australia",
    "lat": -33.872134,
    "lng": 151.206197,
    "zone": null,
    "defaultDeliveryDetails": "",
    "not_emails": "",
    "not_sms": null
  },
  {
    "units": [
      {
        "id": 11,
        "qty": 0
      },
      {
        "id": 12,
        "qty": 0
      }
    ],
    "id": 5165,
    "name": "CD Test 03",
    "client_number": "CD003",
    "PhoneNr": "",
    "webSite": "",
    "Address": "5 Martin Pl, Sydney NSW 2000, Australia",
    "lat": -33.868019,
    "lng": 151.208710,
    "zone": null,
    "defaultDeliveryDetails": "",
    "not_emails": "",
    "not_sms": null
  },
  {
    "units": [
      {
        "id": 11,
        "qty": 0
      },
      {
        "id": 12,
        "qty": 0
      }
    ],
    "id": 4440,
    "name": "Chatterchinos",
    "client_number": "2288",
    "PhoneNr": "0428220721",
    "webSite": null,
    "Address": "362 Conadilly St, Gunnedah NSW 2380, Australia",
    "lat": -30.980570,
    "lng": 150.258844,
    "zone": null,
    "defaultDeliveryDetails": null,
    "not_emails": "chatterchinos@iinet.net.au",
    "not_sms": "0428220721"
  },
  {
    "units": [
      {
        "id": 11,
        "qty": 4
      },
      {
        "id": 12,
        "qty": 26
      }
    ],
    "id": 3821,
    "name": "CHI CONG BAKERY",
    "client_number": "CCONG",
    "PhoneNr": "0400223361",
    "webSite": "",
    "Address": "221 The Entrance Rd, The Entrance NSW 2261, Australia",
    "lat": -33.344671,
    "lng": 151.496250,
    "zone": null,
    "defaultDeliveryDetails": "",
    "not_emails": "theo@solbox.it",
    "not_sms": "0400223361"
  },
  {
    "units": [
      {
        "id": 11,
        "qty": 0
      },
      {
        "id": 12,
        "qty": 0
      }
    ],
    "id": 4437,
    "name": "Cliftons Operations Pty Ltd",
    "client_number": "2285",
    "PhoneNr": "0404289692",
    "webSite": null,
    "Address": "Level 13/60 Margaret St, Sydney NSW 2000, Australia",
    "lat": -33.864751,
    "lng": 151.206817,
    "zone": null,
    "defaultDeliveryDetails": null,
    "not_emails": "sarah.wanden@cliftons.com",
    "not_sms": "0404289692"
  },
  {
    "units": [
      {
        "id": 11,
        "qty": 0
      },
      {
        "id": 12,
        "qty": 0
      }
    ],
    "id": 4493,
    "name": "Cliq (Luxe Sydney PTY LTD)",
    "client_number": "MD009",
    "PhoneNr": "0400223361",
    "webSite": null,
    "Address": "166 Mona Vale Rd, St. Ives NSW 2075, Australia",
    "lat": -33.729900,
    "lng": 151.158600,
    "zone": null,
    "defaultDeliveryDetails": null,
    "not_emails": "theo@solbox.it",
    "not_sms": "0400223361"
  },
  {
    "units": [
      {
        "id": 11,
        "qty": 0
      },
      {
        "id": 12,
        "qty": 0
      }
    ],
    "id": 4445,
    "name": "Coal Espresso",
    "client_number": "2293",
    "PhoneNr": "",
    "webSite": null,
    "Address": "50 Beaumont St, Hamilton NSW 2303, Australia",
    "lat": -32.920401,
    "lng": 151.747311,
    "zone": null,
    "defaultDeliveryDetails": "Level 1",
    "not_emails": "coalespresso@icloud.com",
    "not_sms": ""
  },
  {
    "units": [
      {
        "id": 11,
        "qty": 0
      },
      {
        "id": 12,
        "qty": 0
      }
    ],
    "id": 4472,
    "name": "Commonwealth Bank - Axle",
    "client_number": "2321",
    "PhoneNr": null,
    "webSite": null,
    "Address": "5-7 Central Ave, Eveleigh NSW 2015, Australia",
    "lat": -33.896975,
    "lng": 151.194309,
    "zone": null,
    "defaultDeliveryDetails": "First Floor",
    "not_emails": "Axle_CSInvoices@cba.com.au ",
    "not_sms": null
  },
  {
    "units": [
      {
        "id": 11,
        "qty": 0
      },
      {
        "id": 12,
        "qty": 0
      }
    ],
    "id": 4482,
    "name": "Conservatorium - North Strathfield ",
    "client_number": "2330",
    "PhoneNr": null,
    "webSite": null,
    "Address": "Shop 3/16 George St, North Strathfield NSW 2137, Australia",
    "lat": -33.864092,
    "lng": 151.088274,
    "zone": null,
    "defaultDeliveryDetails": null,
    "not_emails": "conservatoriumbakehouse@gmail.com",
    "not_sms": null
  },
  {
    "units": [
      {
        "id": 11,
        "qty": 0
      },
      {
        "id": 12,
        "qty": 0
      }
    ],
    "id": 4441,
    "name": "Conservatorium at NRMA",
    "client_number": "2289",
    "PhoneNr": "0414610840",
    "webSite": null,
    "Address": "9 Murray Rose Ave, Sydney Olympic Park NSW 2127, Australia",
    "lat": -33.845840,
    "lng": 151.070057,
    "zone": null,
    "defaultDeliveryDetails": null,
    "not_emails": "conservatoriumbakehouse@gmail.com",
    "not_sms": "0414610840"
  },
  {
    "units": [
      {
        "id": 11,
        "qty": 0
      },
      {
        "id": 12,
        "qty": 0
      }
    ],
    "id": 4449,
    "name": "Crystal Car Wash - Brighton",
    "client_number": "2298",
    "PhoneNr": null,
    "webSite": null,
    "Address": "43-47 Nepean Hwy, Elsternwick VIC 3185, Australia",
    "lat": -37.888758,
    "lng": 145.001676,
    "zone": null,
    "defaultDeliveryDetails": null,
    "not_emails": "admin@crystalcarwash.com",
    "not_sms": null
  },
  {
    "units": [
      {
        "id": 11,
        "qty": 0
      },
      {
        "id": 12,
        "qty": 0
      }
    ],
    "id": 4450,
    "name": "Crystal Car Wash - South Yarra",
    "client_number": "2299",
    "PhoneNr": null,
    "webSite": null,
    "Address": "306-308 Punt Rd, South Yarra VIC 3141, Australia",
    "lat": -37.843478,
    "lng": 144.985669,
    "zone": null,
    "defaultDeliveryDetails": null,
    "not_emails": "admin@crystalcarwash.com",
    "not_sms": null
  },
  {
    "units": [
      {
        "id": 11,
        "qty": 0
      },
      {
        "id": 12,
        "qty": 0
      }
    ],
    "id": 4454,
    "name": "Daily Grind Piccadilly",
    "client_number": "2304",
    "PhoneNr": null,
    "webSite": null,
    "Address": "Pitt St, Sydney NSW 2000, Australia",
    "lat": -33.869980,
    "lng": 151.208459,
    "zone": null,
    "defaultDeliveryDetails": "Shop FC3",
    "not_emails": "dailygrindpiccadilly2018@gmail.com",
    "not_sms": null
  },
  {
    "units": [
      {
        "id": 11,
        "qty": -12
      },
      {
        "id": 12,
        "qty": -14
      }
    ],
    "id": 4558,
    "name": "David test",
    "client_number": "9003",
    "PhoneNr": "0498777999",
    "webSite": "",
    "Address": "1 Bay St, Glebe NSW 2037, Australia",
    "lat": -33.882941,
    "lng": 151.194119,
    "zone": null,
    "defaultDeliveryDetails": "",
    "not_emails": "amit@solbox.it; amit@infinitycube.com.au",
    "not_sms": "0498777999"
  },
  {
    "units": [
      {
        "id": 11,
        "qty": 0
      },
      {
        "id": 12,
        "qty": 0
      }
    ],
    "id": 4427,
    "name": "De Niro's Cafe",
    "client_number": "2273",
    "PhoneNr": "",
    "webSite": null,
    "Address": "3/333 Anzac Pde., Kingsford NSW 2032, Australia",
    "lat": -33.923091,
    "lng": 151.226829,
    "zone": null,
    "defaultDeliveryDetails": null,
    "not_emails": "ahhhespresso@optusnet.com.au",
    "not_sms": ""
  },
  {
    "units": [
      {
        "id": 11,
        "qty": 0
      },
      {
        "id": 12,
        "qty": 0
      }
    ],
    "id": 4425,
    "name": "DNT Enterprises",
    "client_number": "DNT",
    "PhoneNr": "+61411778461",
    "webSite": "",
    "Address": "100 Harris St, Pyrmont NSW 2009, Australia",
    "lat": -33.868440,
    "lng": 151.193740,
    "zone": null,
    "defaultDeliveryDetails": "Leave all parcels at reception",
    "not_emails": "david@solbox.it",
    "not_sms": "+61411778461"
  },
  {
    "units": [
      {
        "id": 11,
        "qty": 0
      },
      {
        "id": 12,
        "qty": 0
      }
    ],
    "id": 3820,
    "name": "DRIVE IN MEAT MARKET",
    "client_number": "DRIVE",
    "PhoneNr": "",
    "webSite": "",
    "Address": "471 The Entrance Rd, Long Jetty NSW 2261, Australia",
    "lat": -33.362826,
    "lng": 151.479770,
    "zone": null,
    "defaultDeliveryDetails": "",
    "not_emails": "theo@solbox.it",
    "not_sms": null
  },
  {
    "units": [
      {
        "id": 11,
        "qty": 0
      },
      {
        "id": 12,
        "qty": 0
      }
    ],
    "id": 3818,
    "name": "EDWARD'S FAMILY BUTCHERY WOY WOY",
    "client_number": "EDFAM",
    "PhoneNr": "",
    "webSite": "",
    "Address": "9 Blackwall Rd, Woy Woy NSW 2256, Australia",
    "lat": -33.484826,
    "lng": 151.324548,
    "zone": null,
    "defaultDeliveryDetails": "",
    "not_emails": "theo@solbox.it",
    "not_sms": null
  },
  {
    "units": [
      {
        "id": 11,
        "qty": 0
      },
      {
        "id": 12,
        "qty": 0
      }
    ],
    "id": 4494,
    "name": "Elva Bondi",
    "client_number": "MD010",
    "PhoneNr": "0400223361",
    "webSite": null,
    "Address": "277 Bondi Rd, Bondi NSW 2026, Australia",
    "lat": -33.894930,
    "lng": 151.268200,
    "zone": null,
    "defaultDeliveryDetails": null,
    "not_emails": "theo@solbox.it",
    "not_sms": "0400223361"
  },
  {
    "units": [
      {
        "id": 11,
        "qty": 0
      },
      {
        "id": 12,
        "qty": 0
      }
    ],
    "id": 4535,
    "name": "Espresso warriors - Bondi NEW",
    "client_number": "MD051",
    "PhoneNr": "0400223361",
    "webSite": null,
    "Address": "500 Oxford St, Bondi Junction NSW 2022, Australia",
    "lat": -33.891570,
    "lng": 151.250500,
    "zone": null,
    "defaultDeliveryDetails": null,
    "not_emails": "theo@solbox.it",
    "not_sms": "0400223361"
  },
  {
    "units": [
      {
        "id": 11,
        "qty": 0
      },
      {
        "id": 12,
        "qty": 0
      }
    ],
    "id": 4507,
    "name": "Espresso Warriors - Bondi OLD",
    "client_number": "MD023",
    "PhoneNr": "0400223361",
    "webSite": null,
    "Address": "500 Oxford St, Bondi Junction NSW 2022, Australia",
    "lat": -33.891570,
    "lng": 151.250500,
    "zone": null,
    "defaultDeliveryDetails": null,
    "not_emails": "theo@solbox.it",
    "not_sms": "0400223361"
  },
  {
    "units": [
      {
        "id": 11,
        "qty": 2
      },
      {
        "id": 12,
        "qty": 6
      }
    ],
    "id": 4495,
    "name": "Fishmongers Bondi",
    "client_number": "MD011",
    "PhoneNr": "0400223361",
    "webSite": null,
    "Address": "Shop 1/57-59 Beach Rd, Bondi Beach NSW 2026, Australia",
    "lat": -33.886550,
    "lng": 151.273100,
    "zone": null,
    "defaultDeliveryDetails": null,
    "not_emails": "theo@solbox.it",
    "not_sms": "0400223361"
  },
  {
    "units": [
      {
        "id": 11,
        "qty": 0
      },
      {
        "id": 12,
        "qty": 0
      }
    ],
    "id": 4432,
    "name": "Flowers & Sweet Hampers",
    "client_number": "2280",
    "PhoneNr": "0419613242",
    "webSite": null,
    "Address": "Floor, 3/5 Wilkes Ave, Artarmon NSW 2064, Australia",
    "lat": -33.808092,
    "lng": 151.184807,
    "zone": null,
    "defaultDeliveryDetails": null,
    "not_emails": "thelmabogovic@yahoo.com",
    "not_sms": "0419613242"
  },
  {
    "units": [
      {
        "id": 11,
        "qty": 0
      },
      {
        "id": 12,
        "qty": 0
      }
    ],
    "id": 4516,
    "name": "Funky Pies (COD)",
    "client_number": "MD032",
    "PhoneNr": "0400223361",
    "webSite": null,
    "Address": "2/144-148 Glenayr Ave, Bondi Beach NSW 2026, Australia",
    "lat": -33.888410,
    "lng": 151.271300,
    "zone": null,
    "defaultDeliveryDetails": null,
    "not_emails": "theo@solbox.it",
    "not_sms": "0400223361"
  },
  {
    "units": [
      {
        "id": 11,
        "qty": 0
      },
      {
        "id": 12,
        "qty": 0
      }
    ],
    "id": 4426,
    "name": "GAG Little Albion Business Company Pty Ltd",
    "client_number": "2272",
    "PhoneNr": "",
    "webSite": null,
    "Address": "21 Little Albion St, Surry Hills NSW 2010, Australia",
    "lat": -33.882593,
    "lng": 151.211781,
    "zone": null,
    "defaultDeliveryDetails": null,
    "not_emails": "accounts@crystalbrookcollection.com",
    "not_sms": ""
  },
  {
    "units": [
      {
        "id": 11,
        "qty": 0
      },
      {
        "id": 12,
        "qty": 0
      }
    ],
    "id": 4496,
    "name": "Gazzi Bar & Cafe",
    "client_number": "MD012",
    "PhoneNr": "0400223361",
    "webSite": null,
    "Address": "644 George St, Sydney NSW 2000, Australia",
    "lat": -33.877180,
    "lng": 151.206900,
    "zone": null,
    "defaultDeliveryDetails": null,
    "not_emails": "theo@solbox.it",
    "not_sms": "0400223361"
  },
  {
    "units": [
      {
        "id": 11,
        "qty": 0
      },
      {
        "id": 12,
        "qty": 0
      }
    ],
    "id": 4497,
    "name": "Gertrude & Alice",
    "client_number": "MD013",
    "PhoneNr": "0400223361",
    "webSite": null,
    "Address": "46 Hall St, Bondi Beach NSW 2026, Australia",
    "lat": -33.890170,
    "lng": 151.271800,
    "zone": null,
    "defaultDeliveryDetails": null,
    "not_emails": "theo@solbox.it",
    "not_sms": "0400223361"
  },
  {
    "units": [
      {
        "id": 11,
        "qty": 0
      },
      {
        "id": 12,
        "qty": 0
      }
    ],
    "id": 4431,
    "name": "GF Pantry",
    "client_number": "2279",
    "PhoneNr": "",
    "webSite": null,
    "Address": "Shop 5/191 Victoria Rd, Gladesville NSW 2111, Australia",
    "lat": -33.833027,
    "lng": 151.127326,
    "zone": null,
    "defaultDeliveryDetails": null,
    "not_emails": "orders@gfpantry.com.au",
    "not_sms": ""
  },
  {
    "units": [
      {
        "id": 11,
        "qty": 0
      },
      {
        "id": 12,
        "qty": 0
      }
    ],
    "id": 4529,
    "name": "Gotcha @ Chinatown",
    "client_number": "MD045",
    "PhoneNr": "0400223361",
    "webSite": null,
    "Address": "Shop 40/1 Dixon St, Sydney NSW 2000, Australia",
    "lat": -33.876990,
    "lng": 151.203600,
    "zone": null,
    "defaultDeliveryDetails": null,
    "not_emails": "theo@solbox.it",
    "not_sms": "0400223361"
  },
  {
    "units": [
      {
        "id": 11,
        "qty": 0
      },
      {
        "id": 12,
        "qty": 0
      }
    ],
    "id": 4530,
    "name": "Gotcha Liverpool Street",
    "client_number": "MD046",
    "PhoneNr": "0400223361",
    "webSite": null,
    "Address": "Shop 3/123 Liverpool St, Sydney NSW 2000, Australia",
    "lat": -33.876710,
    "lng": 151.207700,
    "zone": null,
    "defaultDeliveryDetails": null,
    "not_emails": "theo@solbox.it",
    "not_sms": "0400223361"
  },
  {
    "units": [
      {
        "id": 11,
        "qty": 5
      },
      {
        "id": 12,
        "qty": 29
      }
    ],
    "id": 3817,
    "name": "GREEN POINT BUTCHERY",
    "client_number": "GPOINT",
    "PhoneNr": "",
    "webSite": "",
    "Address": "SHOP 4/7 Sun Valley Rd, Green Point NSW 2251, Australia",
    "lat": -33.446498,
    "lng": 151.373338,
    "zone": null,
    "defaultDeliveryDetails": "",
    "not_emails": "theo@solbox.it",
    "not_sms": null
  },
  {
    "units": [
      {
        "id": 11,
        "qty": 0
      },
      {
        "id": 12,
        "qty": 0
      }
    ],
    "id": 4471,
    "name": "Grit And Grind",
    "client_number": "2320",
    "PhoneNr": null,
    "webSite": null,
    "Address": "485A Darling St, Balmain NSW 2041, Australia",
    "lat": -33.856448,
    "lng": 151.172660,
    "zone": null,
    "defaultDeliveryDetails": null,
    "not_emails": "info@gritandgrind.com.au",
    "not_sms": null
  },
  {
    "units": [
      {
        "id": 11,
        "qty": 0
      },
      {
        "id": 12,
        "qty": 0
      }
    ],
    "id": 4460,
    "name": "HAM Cronulla",
    "client_number": "2310",
    "PhoneNr": null,
    "webSite": null,
    "Address": "3/17 Gerrale St, Cronulla NSW 2230, Australia",
    "lat": -34.053543,
    "lng": 151.153461,
    "zone": null,
    "defaultDeliveryDetails": null,
    "not_emails": "allanchill@optusnet.com.au",
    "not_sms": null
  },
  {
    "units": [
      {
        "id": 11,
        "qty": 0
      },
      {
        "id": 12,
        "qty": 0
      }
    ],
    "id": 4453,
    "name": "Harrington Espresso",
    "client_number": "2303",
    "PhoneNr": null,
    "webSite": null,
    "Address": "Shop 1/68 Harrington St, The Rocks NSW 2000, Australia",
    "lat": -33.860696,
    "lng": 151.207967,
    "zone": null,
    "defaultDeliveryDetails": null,
    "not_emails": null,
    "not_sms": null
  },
  {
    "units": [
      {
        "id": 11,
        "qty": 0
      },
      {
        "id": 12,
        "qty": 0
      }
    ],
    "id": 4467,
    "name": "Heart & Soul Cafe Liverpool",
    "client_number": "2316",
    "PhoneNr": null,
    "webSite": null,
    "Address": "165-191 Macquarie St, Liverpool NSW 2170, Australia",
    "lat": -33.921494,
    "lng": 150.923466,
    "zone": null,
    "defaultDeliveryDetails": "Liverpool Plaza D4",
    "not_emails": "stevejuliefamily@gmail.com",
    "not_sms": null
  },
  {
    "units": [
      {
        "id": 11,
        "qty": 0
      },
      {
        "id": 12,
        "qty": 0
      }
    ],
    "id": 4508,
    "name": "Hellenic Club",
    "client_number": "MD024",
    "PhoneNr": "0400223361",
    "webSite": null,
    "Address": "251-253 Elizabeth St, Sydney NSW 2000, Australia",
    "lat": -33.875380,
    "lng": 151.209400,
    "zone": null,
    "defaultDeliveryDetails": null,
    "not_emails": "theo@solbox.it",
    "not_sms": "0400223361"
  },
  {
    "units": [
      {
        "id": 11,
        "qty": 16
      },
      {
        "id": 12,
        "qty": 63
      }
    ],
    "id": 989,
    "name": "Hong Australia Corp",
    "client_number": "044",
    "PhoneNr": "0400223361",
    "webSite": "",
    "Address": "150-156 McCredie Rd, Smithfield NSW 2164, Australia",
    "lat": -33.850708,
    "lng": 150.952728,
    "zone": null,
    "defaultDeliveryDetails": "",
    "not_emails": "theo@solbox.com.au; mikko@solbox.com.au",
    "not_sms": null
  },
  {
    "units": [
      {
        "id": 11,
        "qty": 0
      },
      {
        "id": 12,
        "qty": 0
      }
    ],
    "id": 4443,
    "name": "IAG",
    "client_number": "2291",
    "PhoneNr": "0411010583",
    "webSite": null,
    "Address": "Level 2/55 Pyrmont Bridge Rd, Pyrmont NSW 2009, Australia",
    "lat": -33.872342,
    "lng": 151.194672,
    "zone": null,
    "defaultDeliveryDetails": null,
    "not_emails": "michelle.white@iag.com.au",
    "not_sms": "0411010583"
  },
  {
    "units": [
      {
        "id": 11,
        "qty": 0
      },
      {
        "id": 12,
        "qty": 0
      }
    ],
    "id": 5393,
    "name": "Infinity Cube",
    "client_number": "384950",
    "PhoneNr": "",
    "webSite": "",
    "Address": "10 Grandstand Parade, Zetland NSW 2017, Australia",
    "lat": -33.907808,
    "lng": 151.208913,
    "zone": null,
    "defaultDeliveryDetails": "",
    "not_emails": "",
    "not_sms": null
  },
  {
    "units": [
      {
        "id": 11,
        "qty": 41
      },
      {
        "id": 12,
        "qty": 74
      }
    ],
    "id": 4339,
    "name": "IPSec Penetration Testing",
    "client_number": "6666",
    "PhoneNr": "\"+77789494238\"",
    "webSite": null,
    "Address": "Test address",
    "lat": -33.870060,
    "lng": 151.122624,
    "zone": null,
    "defaultDeliveryDetails": "Secret Password Second Floor",
    "not_emails": "ipsec.pentest1@ipsec.com.au",
    "not_sms": "\"+77789494238\""
  },
  {
    "units": [
      {
        "id": 11,
        "qty": 3
      },
      {
        "id": 12,
        "qty": 3
      }
    ],
    "id": 4338,
    "name": "IPSec Pentest",
    "client_number": "11111",
    "PhoneNr": "04141",
    "webSite": "",
    "Address": "<h1>ADDRESS</h1>",
    "lat": -37.900708,
    "lng": 145.130936,
    "zone": "IPSec Pentest",
    "defaultDeliveryDetails": "IPSec Pentest",
    "not_emails": "ipsec_pentest@mailinator.com",
    "not_sms": null
  },
  {
    "units": [
      {
        "id": 11,
        "qty": 0
      },
      {
        "id": 12,
        "qty": 0
      }
    ],
    "id": 4509,
    "name": "Jin & Co Daily Grind",
    "client_number": "MD025",
    "PhoneNr": "0400223361",
    "webSite": null,
    "Address": "155-159 Castlereagh St, Sydney NSW 2000, Australia",
    "lat": -33.872120,
    "lng": 151.209000,
    "zone": null,
    "defaultDeliveryDetails": null,
    "not_emails": "theo@solbox.it",
    "not_sms": "0400223361"
  },
  {
    "units": [
      {
        "id": 11,
        "qty": 0
      },
      {
        "id": 12,
        "qty": 0
      }
    ],
    "id": 4477,
    "name": "JRM Hospitality (NSW) Pty Ltd",
    "client_number": "2374",
    "PhoneNr": null,
    "webSite": null,
    "Address": "75 Wentworth Ave, Sydney NSW 2000, Australia",
    "lat": -33.879319,
    "lng": 151.209360,
    "zone": null,
    "defaultDeliveryDetails": null,
    "not_emails": "james@jrmhospitality.com.au",
    "not_sms": null
  },
  {
    "units": [
      {
        "id": 11,
        "qty": 0
      },
      {
        "id": 12,
        "qty": 0
      }
    ],
    "id": 4498,
    "name": "Kafe Kaz",
    "client_number": "MD014",
    "PhoneNr": "0400223361",
    "webSite": null,
    "Address": "391 Pitt St, Sydney NSW 2000, Australia",
    "lat": -33.877060,
    "lng": 151.207600,
    "zone": null,
    "defaultDeliveryDetails": null,
    "not_emails": "theo@solbox.it",
    "not_sms": "0400223361"
  },
  {
    "units": [
      {
        "id": 11,
        "qty": -93
      },
      {
        "id": 12,
        "qty": -15
      }
    ],
    "id": 990,
    "name": "Kailis Bros",
    "client_number": "0008",
    "PhoneNr": "0400223361",
    "webSite": "",
    "Address": "237 O'Riordan St, Mascot NSW 2020, Australia",
    "lat": -33.930060,
    "lng": 151.186508,
    "zone": null,
    "defaultDeliveryDetails": "Always deliver from the back",
    "not_emails": "theo@solbox.com.au; mikko@solbox.com.au",
    "not_sms": "0400223361"
  },
  {
    "units": [
      {
        "id": 11,
        "qty": 4
      },
      {
        "id": 12,
        "qty": 0
      }
    ],
    "id": 4560,
    "name": "Karen test",
    "client_number": "9005",
    "PhoneNr": "",
    "webSite": "",
    "Address": "1 Bay St, Glebe NSW 2037, Australia",
    "lat": -33.882941,
    "lng": 151.194119,
    "zone": null,
    "defaultDeliveryDetails": "",
    "not_emails": "",
    "not_sms": ""
  },
  {
    "units": [
      {
        "id": 11,
        "qty": 0
      },
      {
        "id": 12,
        "qty": 0
      }
    ],
    "id": 920,
    "name": "KToot",
    "client_number": "002",
    "PhoneNr": "0400223361",
    "webSite": "",
    "Address": "128 Banks Ave, Pagewood NSW 2035, Australia",
    "lat": -33.943096,
    "lng": 151.223724,
    "zone": null,
    "defaultDeliveryDetails": "KTOOT",
    "not_emails": "theo@solbox.com.au",
    "not_sms": "0400223361"
  },
  {
    "units": [
      {
        "id": 11,
        "qty": 0
      },
      {
        "id": 12,
        "qty": 0
      }
    ],
    "id": 4435,
    "name": "Leicht Kitchens",
    "client_number": "2284",
    "PhoneNr": "0402870841",
    "webSite": null,
    "Address": "76 Penshurst St, Willoughby NSW 2068, Australia",
    "lat": -33.802286,
    "lng": 151.198128,
    "zone": null,
    "defaultDeliveryDetails": "NOTE: leave it further down the side entrance if not open",
    "not_emails": "deborah@leicht.com.au",
    "not_sms": "0402870841"
  },
  {
    "units": [
      {
        "id": 11,
        "qty": 0
      },
      {
        "id": 12,
        "qty": 0
      }
    ],
    "id": 4499,
    "name": "Little Corner Bondi",
    "client_number": "MD015",
    "PhoneNr": "0400223361",
    "webSite": null,
    "Address": "30A Hastings Parade, North Bondi NSW 2026, Australia",
    "lat": -33.886430,
    "lng": 151.279700,
    "zone": null,
    "defaultDeliveryDetails": null,
    "not_emails": "theo@solbox.it",
    "not_sms": "0400223361"
  },
  {
    "units": [
      {
        "id": 11,
        "qty": 0
      },
      {
        "id": 12,
        "qty": 0
      }
    ],
    "id": 4510,
    "name": "Luxe Bar (Gezaroz Pty Ltd) NEW",
    "client_number": "MD026",
    "PhoneNr": "0400223361",
    "webSite": null,
    "Address": "500 Oxford St, Bondi Junction NSW 2022, Australia",
    "lat": -33.892190,
    "lng": 151.250700,
    "zone": null,
    "defaultDeliveryDetails": null,
    "not_emails": "theo@solbox.it",
    "not_sms": "0400223361"
  },
  {
    "units": [
      {
        "id": 11,
        "qty": 0
      },
      {
        "id": 12,
        "qty": 0
      }
    ],
    "id": 4458,
    "name": "Made In Homewares - Springwood",
    "client_number": "2308",
    "PhoneNr": null,
    "webSite": null,
    "Address": "Shop 1/170 Macquarie Rd, Springwood NSW 2777, Australia",
    "lat": -33.699149,
    "lng": 150.565816,
    "zone": null,
    "defaultDeliveryDetails": null,
    "not_emails": "jpurse@madeinhomewares.com",
    "not_sms": null
  },
  {
    "units": [
      {
        "id": 11,
        "qty": 0
      },
      {
        "id": 12,
        "qty": 0
      }
    ],
    "id": 4481,
    "name": "Malabar Bakery",
    "client_number": "2329",
    "PhoneNr": null,
    "webSite": null,
    "Address": "1209 Anzac Pde., Matraville NSW 2036, Australia",
    "lat": -33.962513,
    "lng": 151.245969,
    "zone": null,
    "defaultDeliveryDetails": null,
    "not_emails": "RaquelBarkho@gmail.com",
    "not_sms": null
  },
  {
    "units": [
      {
        "id": 11,
        "qty": 0
      },
      {
        "id": 12,
        "qty": 0
      }
    ],
    "id": 4557,
    "name": "Matthew test",
    "client_number": "9002",
    "PhoneNr": "",
    "webSite": "",
    "Address": "8-40 Euston Rd, Alexandria NSW 2015, Australia",
    "lat": -33.905659,
    "lng": 151.193590,
    "zone": null,
    "defaultDeliveryDetails": "",
    "not_emails": "",
    "not_sms": ""
  },
  {
    "units": [
      {
        "id": 11,
        "qty": 0
      },
      {
        "id": 12,
        "qty": 0
      }
    ],
    "id": 4484,
    "name": "Mezzo Cafe ",
    "client_number": "2332",
    "PhoneNr": null,
    "webSite": null,
    "Address": "55 Wentworth Park Rd, Glebe NSW 2037, Australia",
    "lat": -33.878321,
    "lng": 151.192551,
    "zone": null,
    "defaultDeliveryDetails": "Shop 2G",
    "not_emails": "jpsumine@gmail.com",
    "not_sms": null
  },
  {
    "units": [
      {
        "id": 11,
        "qty": 0
      },
      {
        "id": 12,
        "qty": 0
      }
    ],
    "id": 4561,
    "name": "Michael Gergest",
    "client_number": "9006",
    "PhoneNr": "0498777999",
    "webSite": "",
    "Address": "10 Pyrmont Bridge Rd, Camperdown NSW 2050, Australia",
    "lat": -33.883854,
    "lng": 151.178952,
    "zone": null,
    "defaultDeliveryDetails": "",
    "not_emails": "amit@solbox.it; amit@infinitycube.com.au",
    "not_sms": "0498777999"
  },
  {
    "units": [
      {
        "id": 11,
        "qty": 0
      },
      {
        "id": 12,
        "qty": 0
      }
    ],
    "id": 4562,
    "name": "Mikko Test",
    "client_number": "9007",
    "PhoneNr": "0498777999",
    "webSite": "",
    "Address": "10 Powell St, Homebush NSW 2140, Australia",
    "lat": -33.864343,
    "lng": 151.085986,
    "zone": null,
    "defaultDeliveryDetails": "",
    "not_emails": "amit@solbox.it; amit@infinitycube.com.au",
    "not_sms": "0498777999"
  },
  {
    "units": [
      {
        "id": 11,
        "qty": 0
      },
      {
        "id": 12,
        "qty": 0
      }
    ],
    "id": 4455,
    "name": "Morsl",
    "client_number": "2305",
    "PhoneNr": null,
    "webSite": null,
    "Address": "146 Warren Rd, Smithfield NSW 2164, Australia",
    "lat": -33.847327,
    "lng": 150.950952,
    "zone": null,
    "defaultDeliveryDetails": "c/- Vipul Poddar ",
    "not_emails": "karla.borland@morsl.com.au",
    "not_sms": null
  },
  {
    "units": [
      {
        "id": 11,
        "qty": 0
      },
      {
        "id": 12,
        "qty": 0
      }
    ],
    "id": 3815,
    "name": "MURPHY'S QUALITY BUTCHER",
    "client_number": "EDFAM_CHIT",
    "PhoneNr": "",
    "webSite": "",
    "Address": "SHOP 9/100 Chittaway Rd, Chittaway Bay NSW 2261, Australia",
    "lat": -33.327127,
    "lng": 151.429317,
    "zone": null,
    "defaultDeliveryDetails": "",
    "not_emails": "theo@solbox.it",
    "not_sms": null
  },
  {
    "units": [
      {
        "id": 11,
        "qty": 0
      },
      {
        "id": 12,
        "qty": 0
      }
    ],
    "id": 4465,
    "name": "My Sweet Box",
    "client_number": "2314",
    "PhoneNr": null,
    "webSite": null,
    "Address": "Shop 7/8, 20 Gerrale St, Cronulla NSW 2230, Australia",
    "lat": -34.054409,
    "lng": 151.153713,
    "zone": null,
    "defaultDeliveryDetails": "C/O Milky Lane Shop",
    "not_emails": "mysweetboxcreations@gmail.com",
    "not_sms": null
  },
  {
    "units": [
      {
        "id": 11,
        "qty": 0
      },
      {
        "id": 12,
        "qty": 0
      }
    ],
    "id": 4533,
    "name": "North Bondi RSL Club - FOH",
    "client_number": "MD049",
    "PhoneNr": "0400223361",
    "webSite": null,
    "Address": "118-120 Ramsgate Ave, North Bondi NSW 2026, Australia",
    "lat": -33.890370,
    "lng": 151.282700,
    "zone": null,
    "defaultDeliveryDetails": null,
    "not_emails": "theo@solbox.it",
    "not_sms": "0400223361"
  },
  {
    "units": [
      {
        "id": 11,
        "qty": 0
      },
      {
        "id": 12,
        "qty": 0
      }
    ],
    "id": 4532,
    "name": "North Bondi RSL Club - Kitchen",
    "client_number": "MD048",
    "PhoneNr": "0400223361",
    "webSite": null,
    "Address": "118-120 Ramsgate Ave, North Bondi NSW 2026, Australia",
    "lat": -33.890370,
    "lng": 151.282700,
    "zone": null,
    "defaultDeliveryDetails": null,
    "not_emails": "theo@solbox.it",
    "not_sms": "0400223361"
  },
  {
    "units": [
      {
        "id": 11,
        "qty": 58
      },
      {
        "id": 12,
        "qty": 9
      }
    ],
    "id": 4500,
    "name": "Nudefish Bondi",
    "client_number": "MD016",
    "PhoneNr": "0400223361",
    "webSite": null,
    "Address": "Shop 4, The Beach House Lane, 178 Campbell Parade, Bondi Beach NSW 2026, Australia",
    "lat": -33.889770,
    "lng": 151.275000,
    "zone": null,
    "defaultDeliveryDetails": null,
    "not_emails": "theo@solbox.it",
    "not_sms": "0400223361"
  },
  {
    "units": [
      {
        "id": 11,
        "qty": 44
      },
      {
        "id": 12,
        "qty": 44
      }
    ],
    "id": 4517,
    "name": "Nudefish MLC",
    "client_number": "MD033",
    "PhoneNr": "0400223361",
    "webSite": null,
    "Address": "19 Martin Pl, Sydney NSW 2000, Australia",
    "lat": -33.868430,
    "lng": 151.209200,
    "zone": null,
    "defaultDeliveryDetails": null,
    "not_emails": "theo@solbox.it",
    "not_sms": "0400223361"
  },
  {
    "units": [
      {
        "id": 11,
        "qty": 0
      },
      {
        "id": 12,
        "qty": 0
      }
    ],
    "id": 991,
    "name": "Oceanic Food",
    "client_number": "0014",
    "PhoneNr": "0400223361",
    "webSite": "",
    "Address": "100 President Ave, Caringbah South NSW 2229, Australia",
    "lat": -34.042204,
    "lng": 151.114401,
    "zone": "South",
    "defaultDeliveryDetails": "Speak to Tony",
    "not_emails": "theo@solbox.com.au; mikko@solbox.com.au",
    "not_sms": "0400223361"
  },
  {
    "units": [
      {
        "id": 11,
        "qty": 0
      },
      {
        "id": 12,
        "qty": 0
      }
    ],
    "id": 4527,
    "name": "Paddo RSL (Star Catering Service)",
    "client_number": "MD043",
    "PhoneNr": "0400223361",
    "webSite": null,
    "Address": "220/232 Oxford St, Paddington NSW 2021, Australia",
    "lat": -33.884750,
    "lng": 151.225600,
    "zone": null,
    "defaultDeliveryDetails": null,
    "not_emails": "theo@solbox.it",
    "not_sms": "0400223361"
  },
  {
    "units": [
      {
        "id": 11,
        "qty": 0
      },
      {
        "id": 12,
        "qty": 0
      }
    ],
    "id": 4501,
    "name": "Panama House",
    "client_number": "MD017",
    "PhoneNr": "0400223361",
    "webSite": null,
    "Address": "Shop 104/182 Campbell Parade, Bondi Beach NSW 2026, Australia",
    "lat": -33.889030,
    "lng": 151.276200,
    "zone": null,
    "defaultDeliveryDetails": null,
    "not_emails": "theo@solbox.it",
    "not_sms": "0400223361"
  },
  {
    "units": [
      {
        "id": 11,
        "qty": 0
      },
      {
        "id": 12,
        "qty": 0
      }
    ],
    "id": 4456,
    "name": "Penrith RSL",
    "client_number": "2306",
    "PhoneNr": null,
    "webSite": null,
    "Address": "8 Tindale St, Penrith NSW 2750, Australia",
    "lat": -33.755293,
    "lng": 150.698339,
    "zone": null,
    "defaultDeliveryDetails": null,
    "not_emails": "suec@penrithrsl.com.au",
    "not_sms": null
  },
  {
    "units": [
      {
        "id": 11,
        "qty": 0
      },
      {
        "id": 12,
        "qty": 0
      }
    ],
    "id": 4473,
    "name": "Piccolo Me - 121 Henry St ",
    "client_number": "2322",
    "PhoneNr": null,
    "webSite": null,
    "Address": "1/121 Henry St, Penrith NSW 2750, Australia",
    "lat": -33.751652,
    "lng": 150.696424,
    "zone": null,
    "defaultDeliveryDetails": null,
    "not_emails": "121henryst@piccolome.com",
    "not_sms": null
  },
  {
    "units": [
      {
        "id": 11,
        "qty": 0
      },
      {
        "id": 12,
        "qty": 0
      }
    ],
    "id": 4436,
    "name": "Piccolo Me - Werrington",
    "client_number": "2283",
    "PhoneNr": "0410027532",
    "webSite": null,
    "Address": "14 Great Western Hwy, Kingswood NSW 2747, Australia",
    "lat": -33.765824,
    "lng": 150.743224,
    "zone": null,
    "defaultDeliveryDetails": null,
    "not_emails": "wsuwerrington@piccolome.com",
    "not_sms": "0410027532"
  },
  {
    "units": [
      {
        "id": 11,
        "qty": 0
      },
      {
        "id": 12,
        "qty": 0
      }
    ],
    "id": 4511,
    "name": "Piccolo Me Botanic Gardens",
    "client_number": "MD027",
    "PhoneNr": "0400223361",
    "webSite": null,
    "Address": "Royal Botanic Gardens, Mrs Macquaries Rd, Sydney NSW 2000, Australia",
    "lat": -33.864190,
    "lng": 151.216600,
    "zone": null,
    "defaultDeliveryDetails": null,
    "not_emails": "theo@solbox.it",
    "not_sms": "0400223361"
  },
  {
    "units": [
      {
        "id": 11,
        "qty": 0
      },
      {
        "id": 12,
        "qty": 0
      }
    ],
    "id": 4518,
    "name": "Piccolo Me Castlereagh",
    "client_number": "MD034",
    "PhoneNr": "0400223361",
    "webSite": null,
    "Address": "Shop 3/1 Castlereagh St, Sydney NSW 2000, Australia",
    "lat": -33.866380,
    "lng": 151.209700,
    "zone": null,
    "defaultDeliveryDetails": null,
    "not_emails": "theo@solbox.it",
    "not_sms": "0400223361"
  },
  {
    "units": [
      {
        "id": 11,
        "qty": 0
      },
      {
        "id": 12,
        "qty": 0
      }
    ],
    "id": 4519,
    "name": "Piccolo Me Elizabeth Street",
    "client_number": "MD035",
    "PhoneNr": "0400223361",
    "webSite": null,
    "Address": "80 Elizabeth St, Sydney NSW 2000, Australia",
    "lat": -33.868560,
    "lng": 151.210800,
    "zone": null,
    "defaultDeliveryDetails": null,
    "not_emails": "theo@solbox.it",
    "not_sms": "0400223361"
  },
  {
    "units": [
      {
        "id": 11,
        "qty": 4
      },
      {
        "id": 12,
        "qty": 19
      }
    ],
    "id": 3819,
    "name": "PIZZA INN",
    "client_number": "PINN",
    "PhoneNr": "",
    "webSite": "",
    "Address": "SHOP 1/413 The Entrance Rd, Long Jetty NSW 2261, Australia",
    "lat": -33.358675,
    "lng": 151.484432,
    "zone": null,
    "defaultDeliveryDetails": "",
    "not_emails": "theo@solbox.it",
    "not_sms": null
  },
  {
    "units": [
      {
        "id": 11,
        "qty": 5
      },
      {
        "id": 12,
        "qty": 26
      }
    ],
    "id": 3822,
    "name": "PRIMO FINE FOODS P/L",
    "client_number": "PFINE",
    "PhoneNr": "",
    "webSite": "",
    "Address": "2/23 Jusfrute Dr, West Gosford NSW 2250, Australia",
    "lat": -33.428346,
    "lng": 151.312454,
    "zone": null,
    "defaultDeliveryDetails": "",
    "not_emails": "theo@solbox.it",
    "not_sms": null
  },
  {
    "units": [
      {
        "id": 11,
        "qty": 4
      },
      {
        "id": 12,
        "qty": 26
      }
    ],
    "id": 4520,
    "name": "Salt Meats Cheese Bondi Junction Pty Ltd",
    "client_number": "MD036",
    "PhoneNr": "0400223361",
    "webSite": null,
    "Address": "500 Oxford St, Bondi Junction NSW 2022, Australia",
    "lat": -33.892190,
    "lng": 151.250700,
    "zone": null,
    "defaultDeliveryDetails": null,
    "not_emails": "theo@solbox.it",
    "not_sms": "0400223361"
  },
  {
    "units": [
      {
        "id": 11,
        "qty": 0
      },
      {
        "id": 12,
        "qty": 0
      }
    ],
    "id": 6085,
    "name": "SANDHUB",
    "client_number": "101",
    "PhoneNr": "0415709970",
    "webSite": "",
    "Address": "8 Dunlop St, Strathfield South NSW 2136, Australia",
    "lat": -33.895377,
    "lng": 151.080740,
    "zone": "West",
    "defaultDeliveryDetails": "Always deliver before 12pm.\nAsk for Ash.\nAlways where hivis vest",
    "not_emails": "info@sandhub.com.au",
    "not_sms": "0415709970"
  },
  {
    "units": [
      {
        "id": 11,
        "qty": 0
      },
      {
        "id": 12,
        "qty": 0
      }
    ],
    "id": 4468,
    "name": "Sea Breeze Bondi",
    "client_number": "2317",
    "PhoneNr": null,
    "webSite": null,
    "Address": "1/128 Ramsgate Ave, North Bondi NSW 2026, Australia",
    "lat": -33.890601,
    "lng": 151.283031,
    "zone": null,
    "defaultDeliveryDetails": null,
    "not_emails": "mwaterford@me.com",
    "not_sms": null
  },
  {
    "units": [
      {
        "id": 11,
        "qty": 6
      },
      {
        "id": 12,
        "qty": 38
      }
    ],
    "id": 3816,
    "name": "SINGO'S WHOLESALE MEATS",
    "client_number": "SINGOS",
    "PhoneNr": "0400223361",
    "webSite": "",
    "Address": "1/155 The Entrance Rd, Erina NSW 2250, Australia",
    "lat": -33.438312,
    "lng": 151.380085,
    "zone": null,
    "defaultDeliveryDetails": "",
    "not_emails": "theo@solbox.it",
    "not_sms": "0400223361"
  },
  {
    "units": [
      {
        "id": 11,
        "qty": 0
      },
      {
        "id": 12,
        "qty": 0
      }
    ],
    "id": 4480,
    "name": "Sip Hour Coffee - Strathfield",
    "client_number": "2328",
    "PhoneNr": null,
    "webSite": null,
    "Address": "Shop 2/43 The Boulevarde, Strathfield NSW 2135, Australia",
    "lat": -33.874183,
    "lng": 151.093464,
    "zone": null,
    "defaultDeliveryDetails": null,
    "not_emails": "fu@siphour.com.au",
    "not_sms": null
  },
  {
    "units": [
      {
        "id": 11,
        "qty": -48
      },
      {
        "id": 12,
        "qty": -12
      }
    ],
    "id": 2804,
    "name": "SolBox",
    "client_number": "121",
    "PhoneNr": "0415709970",
    "webSite": "",
    "Address": "100 Harris St, Pyrmont NSW 2009, Australia",
    "lat": -33.868440,
    "lng": 151.193740,
    "zone": "East",
    "defaultDeliveryDetails": "VIP Customer",
    "not_emails": "mikko@solbox.it",
    "not_sms": null
  },
  {
    "units": [
      {
        "id": 11,
        "qty": 0
      },
      {
        "id": 12,
        "qty": 0
      }
    ],
    "id": 4464,
    "name": "State Of Espresso",
    "client_number": "2313",
    "PhoneNr": null,
    "webSite": null,
    "Address": "3/80 Mount St, North Sydney NSW 2060, Australia",
    "lat": -33.838746,
    "lng": 151.208012,
    "zone": null,
    "defaultDeliveryDetails": null,
    "not_emails": "stateofespresso@gmail.com",
    "not_sms": null
  },
  {
    "units": [
      {
        "id": 11,
        "qty": 0
      },
      {
        "id": 12,
        "qty": 0
      }
    ],
    "id": 4430,
    "name": "Street Bean Espresso",
    "client_number": "2278",
    "PhoneNr": "",
    "webSite": null,
    "Address": "Shop 1/3-5 Myahgah Rd, Mosman NSW 2088, Australia",
    "lat": -33.825025,
    "lng": 151.240809,
    "zone": null,
    "defaultDeliveryDetails": "(opposite Mosman Council)",
    "not_emails": "arthurvlachos@hotmail.com",
    "not_sms": ""
  },
  {
    "units": [
      {
        "id": 11,
        "qty": 0
      },
      {
        "id": 12,
        "qty": 0
      }
    ],
    "id": 4559,
    "name": "Subject test",
    "client_number": "9004",
    "PhoneNr": "0498777999",
    "webSite": "",
    "Address": "68 Mountain St, Ultimo NSW 2007, Australia",
    "lat": -33.883935,
    "lng": 151.196850,
    "zone": null,
    "defaultDeliveryDetails": "",
    "not_emails": "amit@solbox.it; amit@infinitycube.com.au",
    "not_sms": "0498777999"
  },
  {
    "units": [
      {
        "id": 11,
        "qty": 6
      },
      {
        "id": 12,
        "qty": 23
      }
    ],
    "id": 992,
    "name": "Superior Foods",
    "client_number": "0035",
    "PhoneNr": "0415709970",
    "webSite": "",
    "Address": "4 Inglis Rd, Ingleburn NSW 2565, Australia",
    "lat": -34.005695,
    "lng": 150.849091,
    "zone": null,
    "defaultDeliveryDetails": "",
    "not_emails": "lawrence@solbox.it",
    "not_sms": "0415709970"
  },
  {
    "units": [
      {
        "id": 11,
        "qty": 0
      },
      {
        "id": 12,
        "qty": 0
      }
    ],
    "id": 4439,
    "name": "Sweet & Scrumptious",
    "client_number": "2287",
    "PhoneNr": "",
    "webSite": null,
    "Address": "Shop 4/97 Princes Hwy, Milton NSW 2538, Australia",
    "lat": -35.316711,
    "lng": 150.436167,
    "zone": null,
    "defaultDeliveryDetails": null,
    "not_emails": "sweetandscrumptious@bigpond.com",
    "not_sms": ""
  },
  {
    "units": [
      {
        "id": 11,
        "qty": 0
      },
      {
        "id": 12,
        "qty": 0
      }
    ],
    "id": 4556,
    "name": "Tanya",
    "client_number": "9001",
    "PhoneNr": "0498777999",
    "webSite": "",
    "Address": "2A Forsyth St, Glebe NSW 2037, Australia",
    "lat": -33.875705,
    "lng": 151.185010,
    "zone": null,
    "defaultDeliveryDetails": "",
    "not_emails": "amit@solbox.it; amit@infinitycube.com.au",
    "not_sms": "0498777999"
  },
  {
    "units": [
      {
        "id": 11,
        "qty": 0
      },
      {
        "id": 12,
        "qty": 0
      }
    ],
    "id": 4536,
    "name": "Tequila Mockingbird",
    "client_number": "MD052",
    "PhoneNr": "0400223361",
    "webSite": null,
    "Address": "6 Heeley St, Paddington NSW 2021, Australia",
    "lat": -33.882640,
    "lng": 151.228300,
    "zone": null,
    "defaultDeliveryDetails": null,
    "not_emails": "theo@solbox.it",
    "not_sms": "0400223361"
  },
  {
    "units": [
      {
        "id": 11,
        "qty": 0
      },
      {
        "id": 12,
        "qty": 0
      }
    ],
    "id": 4451,
    "name": "The Allergy Centre",
    "client_number": "2301",
    "PhoneNr": null,
    "webSite": null,
    "Address": "Jamison Centre, Bowman St, Macquarie ACT 2614, Australia",
    "lat": -35.252721,
    "lng": 149.071162,
    "zone": null,
    "defaultDeliveryDetails": "Shop 2",
    "not_emails": "allergycentre@bigpond.com",
    "not_sms": null
  },
  {
    "units": [
      {
        "id": 11,
        "qty": 0
      },
      {
        "id": 12,
        "qty": 0
      }
    ],
    "id": 4502,
    "name": "The Bucket List Bondi",
    "client_number": "MD018",
    "PhoneNr": "0400223361",
    "webSite": null,
    "Address": "264-268 Campbell Parade, North Bondi NSW 2026, Australia",
    "lat": -33.889540,
    "lng": 151.281300,
    "zone": null,
    "defaultDeliveryDetails": null,
    "not_emails": "theo@solbox.it",
    "not_sms": "0400223361"
  },
  {
    "units": [
      {
        "id": 11,
        "qty": 0
      },
      {
        "id": 12,
        "qty": 0
      }
    ],
    "id": 4470,
    "name": "The Catering Department",
    "client_number": "2319",
    "PhoneNr": null,
    "webSite": null,
    "Address": "19/566 Gardeners Rd, Alexandria NSW 2015, Australia",
    "lat": -33.919660,
    "lng": 151.184675,
    "zone": null,
    "defaultDeliveryDetails": null,
    "not_emails": "accounts@thecateringdepartment.com.au",
    "not_sms": null
  },
  {
    "units": [
      {
        "id": 11,
        "qty": 0
      },
      {
        "id": 12,
        "qty": 0
      }
    ],
    "id": 4534,
    "name": "The Char Bellevue Hill",
    "client_number": "MD050",
    "PhoneNr": "0400223361",
    "webSite": null,
    "Address": "22 Bellevue Rd, Bellevue Hill NSW 2023, Australia",
    "lat": -33.886140,
    "lng": 151.257000,
    "zone": null,
    "defaultDeliveryDetails": null,
    "not_emails": "theo@solbox.it",
    "not_sms": "0400223361"
  },
  {
    "units": [
      {
        "id": 11,
        "qty": 0
      },
      {
        "id": 12,
        "qty": 0
      }
    ],
    "id": 4521,
    "name": "The Char Rotisserie Bondi",
    "client_number": "MD037",
    "PhoneNr": "0400223361",
    "webSite": null,
    "Address": "125 Bondi Rd, Bondi NSW 2026, Australia",
    "lat": -33.893990,
    "lng": 151.262300,
    "zone": null,
    "defaultDeliveryDetails": null,
    "not_emails": "theo@solbox.it",
    "not_sms": "0400223361"
  },
  {
    "units": [
      {
        "id": 11,
        "qty": 0
      },
      {
        "id": 12,
        "qty": 0
      }
    ],
    "id": 4448,
    "name": "The Courtyard Cafe",
    "client_number": "2297",
    "PhoneNr": null,
    "webSite": null,
    "Address": "575 Canterbury Rd, Campsie NSW 2194, Australia",
    "lat": -33.919441,
    "lng": 151.098396,
    "zone": null,
    "defaultDeliveryDetails": "Level 2, Canterbury Hospital",
    "not_emails": "gracecabusas11@gmail.com",
    "not_sms": null
  },
  {
    "units": [
      {
        "id": 11,
        "qty": 0
      },
      {
        "id": 12,
        "qty": 0
      }
    ],
    "id": 4512,
    "name": "The Eastern Hotel Bondi - FOH",
    "client_number": "MD028",
    "PhoneNr": "0400223361",
    "webSite": null,
    "Address": "500 Oxford St, Bondi Junction NSW 2022, Australia",
    "lat": -33.891570,
    "lng": 151.250500,
    "zone": null,
    "defaultDeliveryDetails": null,
    "not_emails": "theo@solbox.it",
    "not_sms": "0400223361"
  },
  {
    "units": [
      {
        "id": 11,
        "qty": 0
      },
      {
        "id": 12,
        "qty": 0
      }
    ],
    "id": 4503,
    "name": "The Eastern Hotel Bondi - Kitchen",
    "client_number": "MD019",
    "PhoneNr": "0400223361",
    "webSite": null,
    "Address": "500 Oxford St, Bondi Junction NSW 2022, Australia",
    "lat": -33.891570,
    "lng": 151.250500,
    "zone": null,
    "defaultDeliveryDetails": null,
    "not_emails": "theo@solbox.it",
    "not_sms": "0400223361"
  },
  {
    "units": [
      {
        "id": 11,
        "qty": 0
      },
      {
        "id": 12,
        "qty": 0
      }
    ],
    "id": 4461,
    "name": "The Flower Scene",
    "client_number": "2294",
    "PhoneNr": null,
    "webSite": null,
    "Address": "1/21A Babbage Road, Roseville Chase NSW 2069, Australia",
    "lat": -33.778465,
    "lng": 151.195329,
    "zone": null,
    "defaultDeliveryDetails": null,
    "not_emails": "lisa@theflowerscene.com.au",
    "not_sms": null
  },
  {
    "units": [
      {
        "id": 11,
        "qty": 0
      },
      {
        "id": 12,
        "qty": 0
      }
    ],
    "id": 4444,
    "name": "The Heights Cafe",
    "client_number": "2292",
    "PhoneNr": "",
    "webSite": null,
    "Address": "19/138 Centaur St, Revesby Heights NSW 2212, Australia",
    "lat": -33.965658,
    "lng": 151.018811,
    "zone": null,
    "defaultDeliveryDetails": null,
    "not_emails": "rl@theheightscafe.com.au",
    "not_sms": ""
  },
  {
    "units": [
      {
        "id": 11,
        "qty": 0
      },
      {
        "id": 12,
        "qty": 0
      }
    ],
    "id": 4483,
    "name": "The Hungry Baker",
    "client_number": "2331",
    "PhoneNr": null,
    "webSite": null,
    "Address": "Shop 3/8 Khartoum Rd, Macquarie Park NSW 2113, Australia",
    "lat": -33.779311,
    "lng": 151.123981,
    "zone": null,
    "defaultDeliveryDetails": null,
    "not_emails": "accounts@hungrybakermp.com",
    "not_sms": null
  },
  {
    "units": [
      {
        "id": 11,
        "qty": 0
      },
      {
        "id": 12,
        "qty": 0
      }
    ],
    "id": 4438,
    "name": "The Industrial Harvest",
    "client_number": "2286",
    "PhoneNr": "",
    "webSite": null,
    "Address": "6/2A Southridge St, Eastern Creek NSW 2766, Australia",
    "lat": -33.813525,
    "lng": 150.843139,
    "zone": null,
    "defaultDeliveryDetails": "Southridge Plaza",
    "not_emails": "admin@industrialharvest.com.au",
    "not_sms": ""
  },
  {
    "units": [
      {
        "id": 11,
        "qty": 0
      },
      {
        "id": 12,
        "qty": 0
      }
    ],
    "id": 4531,
    "name": "The Naked Duck Campbell Street",
    "client_number": "MD047",
    "PhoneNr": "0400223361",
    "webSite": null,
    "Address": "24 Campbell St, Haymarket NSW 2000, Australia",
    "lat": -33.878960,
    "lng": 151.206600,
    "zone": null,
    "defaultDeliveryDetails": null,
    "not_emails": "theo@solbox.it",
    "not_sms": "0400223361"
  },
  {
    "units": [
      {
        "id": 11,
        "qty": 0
      },
      {
        "id": 12,
        "qty": 0
      }
    ],
    "id": 4522,
    "name": "The Naked Duck Castlereagh",
    "client_number": "MD038",
    "PhoneNr": "0400223361",
    "webSite": null,
    "Address": "Capita Centre, 9 Castlereagh St, Sydney NSW 2000, Australia",
    "lat": -33.866670,
    "lng": 151.209700,
    "zone": null,
    "defaultDeliveryDetails": null,
    "not_emails": "theo@solbox.it",
    "not_sms": "0400223361"
  },
  {
    "units": [
      {
        "id": 11,
        "qty": 0
      },
      {
        "id": 12,
        "qty": 0
      }
    ],
    "id": 4524,
    "name": "The Naked Duck Hyde Park",
    "client_number": "MD040",
    "PhoneNr": "0400223361",
    "webSite": null,
    "Address": "175 Liverpool St, Sydney NSW 2000, Australia",
    "lat": -33.877110,
    "lng": 151.210900,
    "zone": null,
    "defaultDeliveryDetails": null,
    "not_emails": "theo@solbox.it",
    "not_sms": "0400223361"
  },
  {
    "units": [
      {
        "id": 11,
        "qty": 66
      },
      {
        "id": 12,
        "qty": 6
      }
    ],
    "id": 4523,
    "name": "The Naked Duck Hyde Park -- DO NOT USE",
    "client_number": "MD039",
    "PhoneNr": "0400223361",
    "webSite": null,
    "Address": "175 Liverpool St, Sydney NSW 2000, Australia",
    "lat": -33.877110,
    "lng": 151.210900,
    "zone": null,
    "defaultDeliveryDetails": null,
    "not_emails": "theo@solbox.it",
    "not_sms": "0400223361"
  },
  {
    "units": [
      {
        "id": 11,
        "qty": 0
      },
      {
        "id": 12,
        "qty": 0
      }
    ],
    "id": 4479,
    "name": "The Picnic Burwood",
    "client_number": "2327",
    "PhoneNr": null,
    "webSite": null,
    "Address": "Park Ave & Burwood Rd, Burwood NSW 2134, Australia",
    "lat": -33.874247,
    "lng": 151.104334,
    "zone": null,
    "defaultDeliveryDetails": null,
    "not_emails": "info@thepicnicburwood.com.au",
    "not_sms": null
  },
  {
    "units": [
      {
        "id": 11,
        "qty": 0
      },
      {
        "id": 12,
        "qty": 0
      }
    ],
    "id": 4446,
    "name": "The Professors Tasty Technology Pty Ltd",
    "client_number": "2295",
    "PhoneNr": "",
    "webSite": null,
    "Address": "Warehouse 16/8 Gladstone Rd, Castle Hill NSW 2154, Australia",
    "lat": -33.734221,
    "lng": 150.977102,
    "zone": null,
    "defaultDeliveryDetails": null,
    "not_emails": "nharakos@theprofessors.com.au",
    "not_sms": ""
  },
  {
    "units": [
      {
        "id": 11,
        "qty": 0
      },
      {
        "id": 12,
        "qty": 0
      }
    ],
    "id": 4504,
    "name": "The Shack Bondi",
    "client_number": "MD020",
    "PhoneNr": "0400223361",
    "webSite": null,
    "Address": "30A Hastings Parade, North Bondi NSW 2026, Australia",
    "lat": -33.886430,
    "lng": 151.279700,
    "zone": null,
    "defaultDeliveryDetails": null,
    "not_emails": "theo@solbox.it",
    "not_sms": "0400223361"
  },
  {
    "units": [
      {
        "id": 11,
        "qty": 0
      },
      {
        "id": 12,
        "qty": 0
      }
    ],
    "id": 4463,
    "name": "The Shine Shed",
    "client_number": "2312",
    "PhoneNr": null,
    "webSite": null,
    "Address": "5 Mount Erin Rd, Campbelltown NSW 2560, Australia",
    "lat": -34.058883,
    "lng": 150.804566,
    "zone": null,
    "defaultDeliveryDetails": null,
    "not_emails": "lisa@shineei.com.au",
    "not_sms": null
  },
  {
    "units": [
      {
        "id": 11,
        "qty": 0
      },
      {
        "id": 12,
        "qty": 0
      }
    ],
    "id": 4429,
    "name": "The Treat Factory",
    "client_number": "2277",
    "PhoneNr": "",
    "webSite": null,
    "Address": "6 Old Creamery Ln, Berry NSW 2535, Australia",
    "lat": -34.781248,
    "lng": 150.696742,
    "zone": null,
    "defaultDeliveryDetails": null,
    "not_emails": "enquiries@treatfactory.com.au",
    "not_sms": ""
  },
  {
    "units": [
      {
        "id": 11,
        "qty": 0
      },
      {
        "id": 12,
        "qty": 0
      }
    ],
    "id": 6105,
    "name": "theop",
    "client_number": "tp1",
    "PhoneNr": "0400223361",
    "webSite": "",
    "Address": "100 Harris St, Pyrmont NSW 2009, Australia",
    "lat": -33.868440,
    "lng": 151.193740,
    "zone": null,
    "defaultDeliveryDetails": "",
    "not_emails": "",
    "not_sms": null
  },
  {
    "units": [
      {
        "id": 11,
        "qty": 0
      },
      {
        "id": 12,
        "qty": 0
      }
    ],
    "id": 4505,
    "name": "TK & AGE SERVICES TRUST (ZILIA)",
    "client_number": "MD021",
    "PhoneNr": "0400223361",
    "webSite": null,
    "Address": "19 Martin Pl, Sydney NSW 2000, Australia",
    "lat": -33.868760,
    "lng": 151.209000,
    "zone": null,
    "defaultDeliveryDetails": null,
    "not_emails": "theo@solbox.it",
    "not_sms": "0400223361"
  },
  {
    "units": [
      {
        "id": 11,
        "qty": 0
      },
      {
        "id": 12,
        "qty": 0
      }
    ],
    "id": 4525,
    "name": "Toby's Estate Bondi Junction",
    "client_number": "MD041",
    "PhoneNr": "0400223361",
    "webSite": null,
    "Address": "500 Oxford St, Bondi Junction NSW 2022, Australia",
    "lat": -33.892190,
    "lng": 151.250700,
    "zone": null,
    "defaultDeliveryDetails": null,
    "not_emails": "theo@solbox.it",
    "not_sms": "0400223361"
  },
  {
    "units": [
      {
        "id": 11,
        "qty": 33
      },
      {
        "id": 12,
        "qty": 88
      }
    ],
    "id": 4526,
    "name": "Toby's Estate The Precinct Bondi Junction",
    "client_number": "MD042",
    "PhoneNr": "0400223361",
    "webSite": null,
    "Address": "500 Oxford St, Bondi Junction NSW 2022, Australia",
    "lat": -33.892190,
    "lng": 151.250700,
    "zone": null,
    "defaultDeliveryDetails": null,
    "not_emails": "theo@solbox.it",
    "not_sms": "0400223361"
  },
  {
    "units": [
      {
        "id": 11,
        "qty": 0
      },
      {
        "id": 12,
        "qty": 0
      }
    ],
    "id": 919,
    "name": "tpop01",
    "client_number": "001",
    "PhoneNr": "0400223361",
    "webSite": "",
    "Address": "18 Rouse Pl, Illawong NSW 2234, Australia",
    "lat": -34.000183,
    "lng": 151.039566,
    "zone": null,
    "defaultDeliveryDetails": "Tpop01 orders",
    "not_emails": "theo@solbox.com.au",
    "not_sms": "0400223361"
  },
  {
    "units": [
      {
        "id": 11,
        "qty": 4
      },
      {
        "id": 12,
        "qty": 19
      }
    ],
    "id": 3813,
    "name": "TUMBI MEATS",
    "client_number": "CTUM",
    "PhoneNr": "",
    "webSite": "",
    "Address": "2/11 Tumbi Creek Rd, Berkeley Vale NSW 2261, Australia",
    "lat": -33.358861,
    "lng": 151.444573,
    "zone": null,
    "defaultDeliveryDetails": "",
    "not_emails": "theo@solbox.it",
    "not_sms": null
  },
  {
    "units": [
      {
        "id": 11,
        "qty": 6
      },
      {
        "id": 12,
        "qty": 18
      }
    ],
    "id": 993,
    "name": "V&C Foods",
    "client_number": "0070",
    "PhoneNr": "0400223361",
    "webSite": "",
    "Address": "10 Norfolk Ave, South Nowra NSW 2541, Australia",
    "lat": -34.909309,
    "lng": 150.582016,
    "zone": null,
    "defaultDeliveryDetails": "",
    "not_emails": "theo@solbox.com.au; mikko@solbox.com.au",
    "not_sms": "0400223361"
  },
  {
    "units": [
      {
        "id": 11,
        "qty": 0
      },
      {
        "id": 12,
        "qty": 0
      }
    ],
    "id": 4506,
    "name": "Vegan Lebanese Street Food",
    "client_number": "MD022",
    "PhoneNr": "0400223361",
    "webSite": null,
    "Address": "188 Bondi Rd, Bondi NSW 2026, Australia",
    "lat": -33.893560,
    "lng": 151.262700,
    "zone": null,
    "defaultDeliveryDetails": null,
    "not_emails": "theo@solbox.it",
    "not_sms": "0400223361"
  },
  {
    "units": [
      {
        "id": 11,
        "qty": 0
      },
      {
        "id": 12,
        "qty": 0
      }
    ],
    "id": 4528,
    "name": "Vienna Sandwiches @ Pitt Street",
    "client_number": "MD044",
    "PhoneNr": "0400223361",
    "webSite": null,
    "Address": "122 Pitt St, Sydney NSW 2000, Australia",
    "lat": -33.868580,
    "lng": 151.208600,
    "zone": null,
    "defaultDeliveryDetails": null,
    "not_emails": "theo@solbox.it",
    "not_sms": "0400223361"
  },
  {
    "units": [
      {
        "id": 11,
        "qty": 0
      },
      {
        "id": 12,
        "qty": 0
      }
    ],
    "id": 6142,
    "name": "VT-438591",
    "client_number": "VT-438591",
    "PhoneNr": null,
    "webSite": null,
    "Address": "584 Maroochydore Rd, Kunda Park QLD 4556, Australia",
    "lat": -26.662280,
    "lng": 153.036393,
    "zone": null,
    "defaultDeliveryDetails": null,
    "not_emails": null,
    "not_sms": null
  },
  {
    "units": [
      {
        "id": 11,
        "qty": 0
      },
      {
        "id": 12,
        "qty": 0
      }
    ],
    "id": 6154,
    "name": "VT-4385910",
    "client_number": "VT-4385910",
    "PhoneNr": null,
    "webSite": null,
    "Address": "Caboolture QLD 4510, Australia",
    "lat": -27.077755,
    "lng": 152.964738,
    "zone": null,
    "defaultDeliveryDetails": null,
    "not_emails": null,
    "not_sms": null
  },
  {
    "units": [
      {
        "id": 11,
        "qty": 0
      },
      {
        "id": 12,
        "qty": 0
      }
    ],
    "id": 6155,
    "name": "VT-4385911",
    "client_number": "VT-4385911",
    "PhoneNr": null,
    "webSite": null,
    "Address": "6 Piggott Rd, Bellmere QLD 4510, Australia",
    "lat": -27.087743,
    "lng": 152.927772,
    "zone": null,
    "defaultDeliveryDetails": null,
    "not_emails": null,
    "not_sms": null
  },